Bus Stop ID,Location,Direction,Route Number,Route Name,Benches,Bench Responsibility,Trash Cans,Trash Can Responsibility,Shelters,Shelter Responsibility,Longitude,Latitude,ObjectId,x,y
3100,Southfield & Lyndon,Southbound,46,Southfield,false, ,false, ,false, ,-83.2183309,42.3935641,1,-9263822.22045414,5220116.97125054
3106,Southfield & W Outer Dr,Southbound,46,Southfield,false, ,false, ,false, ,-83.2192628,42.4187519,2,-9263925.95908761,5223914.31442673
3108,Southfield & W Outer Dr,Northbound,46,Southfield,false, ,false, ,false, ,-83.218588,42.4195141,3,-9263850.84069523,5224029.24839213
3109,Southfield & Curtis,Southbound,46,Southfield,false, ,false, ,false, ,-83.2195022,42.422515,4,-9263952.60897371,5224481.774877
3110,Southfield & Curtis,Northbound,46,Southfield,false, ,false, ,false, ,-83.2186061,42.4233229,5,-9263852.85557801,5224603.60741116
3111,W Outer Dr & Oakfield,Eastbound,16,Dexter,false, ,false, ,false, ,-83.214925,42.419086,6,-9263443.07740045,5223964.69399477
3112,W Outer Dr & Oakfield,Westbound,16,Dexter,false, ,false, ,false, ,-83.214771,42.419425,7,-9263425.93419887,5224015.8127174
3114,Southfield & 7 Mile,Southbound,46,Southfield,false, ,true,City of Detroit,false, ,-83.219821,42.42967,8,-9263988.09762737,5225560.81425192
3116,Southfield & Pembroke,Northbound,46,Southfield,false, ,false, ,false, ,-83.219287,42.4373919,9,-9263928.65301929,5226725.48553125
3117,Southfield & Pembroke,Southbound,46,Southfield,false, ,false, ,false, ,-83.2200358,42.4370081,10,-9264012.009054,5226667.59472624
3130,8 Mile & Rutland,Westbound,17,Eight Mile,false, ,true,Third-Party,false, ,-83.214498,42.4447721,11,-9263395.54397788,5227838.75335207
3142,Northwestern & Northland,Westbound,"10, 16, 17","Greenfield, Dexter, Eight Mile",true,DDOT,true,Third-Party,true,DDOT,-83.2053819,42.44716,12,-9262380.74436786,5228198.98471023
3144,Warren & Artesian,Eastbound,8,Warren,false, ,false, ,false, ,-83.2257479,42.3431981,13,-9264647.87711736,5212528.29983037
3145,Warren & Artesian,Westbound,8,Warren,false, ,false, ,false, ,-83.2261329,42.343408,14,-9264690.73512131,5212559.91295205
3146,Warren & Brace,Eastbound,8,Warren,false, ,false,City of Detroit,false, ,-83.2227441,42.3432329,15,-9264313.49563091,5212533.54106478
3147,Warren & Greenview,Westbound,8,Warren,false, ,false, ,false, ,-83.222341,42.3434489,16,-9264268.62274417,5212566.07292945
3148,Warren & Faust,Eastbound,8,Warren,false, ,true,Third-Party,false, ,-83.220241,42.34324,17,-9264034.85181351,5212534.61039744
3149,Warren & Penrod,Westbound,8,Warren,false, ,false, ,false, ,-83.220252,42.3434259,18,-9264036.07632791,5212562.60888299
3150,Warren & Rosemont,Eastbound,8,Warren,false, ,false, ,false, ,-83.218022,42.3432639,19,-9263787.83386344,5212538.20998293
3151,Warren & Ashton,Eastbound,8,Warren,false, ,false, ,false, ,-83.216863,42.3432651,20,-9263658.81457361,5212538.3907153
3152,Warren & Southfield,Eastbound,8,Warren,false, ,false, ,true,DDOT,-83.2154259,42.3432791,21,-9263498.83733339,5212540.49925977
3153,Warren & Southfield,Westbound,8,Warren,false, ,true,City of Detroit,false, ,-83.2168571,42.343444,22,-9263658.15778861,5212565.33493684
3157,Joy & Artesian,Westbound,27,Joy,false, ,false, ,false, ,-83.2265539,42.3578141,23,-9264737.60062694,5214729.87360976
3158,Joy & Stahelin,Eastbound,27,Joy,false, ,false, ,false, ,-83.2245768,42.3576351,24,-9264517.51086169,5214702.90816305
3159,Joy & Brace,Westbound,27,Joy,false, ,false, ,false, ,-83.2239949,42.3578729,25,-9264452.73405,5214738.73154981
3160,Joy & Greenview,Eastbound,27,Joy,false, ,false, ,false, ,-83.2222911,42.3576609,26,-9264263.06790158,5214706.79479812
3161,Chicago & Artesian,Eastbound,15,Chicago/Davison,false, ,true,City of Detroit,false, ,-83.2260231,42.3648311,27,-9264678.51224122,5215787.00978183
3162,Chicago & Stahelin,Westbound,15,Chicago/Davison,false, ,false, ,false, ,-83.2253551,42.3649769,28,-9264604.15082137,5215808.9763259
3163,Chicago & Brace,Eastbound,15,Chicago/Davison,false, ,false, ,false, ,-83.2238781,42.36486,29,-9264439.73193347,5215791.36391443
3165,Joy & Faust,Westbound,27,Joy,false, ,false, ,false, ,-83.2216071,42.357895,30,-9264186.92536988,5214742.06081173
3168,Joy & Southfield,Eastbound,27,Joy,false, ,false, ,true,DDOT,-83.217301,42.3577,31,-9263707.57251058,5214712.68501167
3173,Fitzpatrick & Chicago,Southbound,46,Southfield,false, ,true,City of Detroit,false, ,-83.2185421,42.364821,32,-9263845.7311306,5215785.48809582
3174,Chicago & Fitzpatrick,Eastbound,"15, 46","Chicago/Davison, Southfield",false, ,true,City of Detroit,false, ,-83.2179879,42.364954,33,-9263784.0378688,5215805.52615889
3177,Southfield & Chicago,Southbound,46,Southfield,false, ,false, ,false, ,-83.2169228,42.3658771,34,-9263665.47147916,5215944.60353853
3178,Southfield & Chicago,Northbound,46,Southfield,false, ,false, ,false, ,-83.2160589,42.3655439,35,-9263569.30257106,5215894.40225973
3179,Chicago & Archdale,Westbound,15,Chicago/Davison,false, ,false, ,false, ,-83.2158539,42.3653031,36,-9263546.48207545,5215858.12250969
3180,Chicago & Longacre,Eastbound,15,Chicago/Davison,false, ,false, ,false, ,-83.2139918,42.365057,37,-9263339.19405164,5215821.04438725
3181,Warren & Archdale,Westbound,8,Warren,false, ,false, ,false, ,-83.2146628,42.343473,38,-9263413.88942996,5212569.70264906
3182,Warren & Abington,Eastbound,8,Warren,false, ,false, ,false, ,-83.2100282,42.343396,39,-9262897.96811793,5212558.10562448
3183,Warren & Clayburn,Westbound,8,Warren,false, ,true,City of Detroit,true,DDOT,-83.21141,42.3435311,40,-9263051.78939031,5212578.45314064
3185,Warren & Grandmont,Westbound,8,Warren,false, ,false, ,false, ,-83.2078731,42.3435859,41,-9262658.06348333,5212586.70662376
3186,Chicago & Rutland,Westbound,15,Chicago/Davison,false, ,false, ,false, ,-83.2132078,42.3652079,42,-9263251.91957086,5215843.77939106
3187,Chicago & Memorial,Eastbound,15,Chicago/Davison,false, ,false, ,false, ,-83.211516,42.3650801,43,-9263063.58925634,5215824.52469244
3188,Chicago & Abington,Westbound,15,Chicago/Davison,false, ,false, ,false, ,-83.2108051,42.3652609,44,-9262984.45223033,5215851.76452795
3189,Chicago & Grandmont,Eastbound,15,Chicago/Davison,false, ,false, ,false, ,-83.208974,42.3651031,45,-9262780.61511074,5215827.98993265
3190,Chicago & Woodmont,Westbound,15,Chicago/Davison,false, ,false, ,false, ,-83.2084882,42.3652771,46,-9262726.53610211,5215854.20526925
3191,McNichols & Sunderland,Eastbound,32,McNichols,false, ,false, ,false, ,-83.227547,42.4152981,47,-9264848.15201324,5223393.52515137
3192,McNichols & Stahelin,Westbound,32,McNichols,false, ,false, ,false, ,-83.22721,42.4155,48,-9264810.63734485,5223423.96832366
3193,McNichols & Greenview,Eastbound,32,McNichols,false, ,false, ,false, ,-83.224068,42.415365,49,-9264460.87150477,5223403.61255124
3194,McNichols & Glastonbury,Westbound,32,McNichols,false, ,false, ,false, ,-83.2231481,42.4155841,50,-9264358.46870519,5223436.64923812
3195,McNichols & Rosemont,Eastbound,32,McNichols,false, ,false, ,false, ,-83.2210198,42.4154309,51,-9264121.54743294,5223413.54917838
3199,McNichols & Orleans,Eastbound,32,McNichols,false, ,false, ,false, ,-83.0846309,42.418157,52,-9248938.80453508,5223824.60900016
3200,McNichols & Archdale,Westbound,32,McNichols,false, ,false, ,false, ,-83.2170498,42.415694,53,-9263679.60905449,5223453.22039928
3201,McNichols & Harlow,Eastbound,32,McNichols,false, ,false, ,false, ,-83.215252,42.415557,54,-9263479.47887394,5223432.56299629
3203,McNichols & Lindsay,Westbound,32,McNichols,false, ,false, ,false, ,-83.2135149,42.4157831,55,-9263286.10578648,5223466.65527464
3204,McNichols & Gilchrist,Eastbound,32,McNichols,false, ,false, ,false, ,-83.2114672,42.4156209,56,-9263058.15686519,5223442.19808594
3205,McNichols & Ferguson,Westbound,32,McNichols,false, ,false, ,false, ,-83.2103741,42.4158491,57,-9262936.4735298,5223476.60704648
3206,W Outer Dr & Lindsay,Westbound,16,Dexter,false, ,false, ,false, ,-83.2136559,42.4194551,58,-9263301.80183469,5224020.35159079
3208,W Outer Dr & Lindsay,Eastbound,16,Dexter,false, ,false, ,false, ,-83.2130782,42.41911,59,-9263237.49256485,5223968.31301029
3210,W Outer Dr & Biltmore,Westbound,16,Dexter,false, ,false, ,false, ,-83.2114249,42.419503,60,-9263053.44805073,5224027.5745865
3211,W Outer Dr & Biltmore,Eastbound,16,Dexter,false, ,false, ,false, ,-83.2108579,42.4191569,61,-9262990.32989945,5223975.38517379
3214,W Outer Dr & Asbury Park,Westbound,16,Dexter,false, ,false, ,false, ,-83.2094711,42.4195421,62,-9262835.95202961,5224033.47060587
3216,W Outer Dr & Asbury Park,Eastbound,16,Dexter,false, ,false, ,false, ,-83.208784,42.419225,63,-9262759.46440749,5223985.65414555
3219,North Park Dr & North Park Pl,Southbound,10,Greenfield,false, ,false, ,false, ,-83.2107308,42.455357,64,-9262976.18119217,5229435.66377659
3220,North Park Dr & Providence Dr,Southbound,10,Greenfield,false, ,false, ,false, ,-83.2073529,42.4561501,65,-9262600.15508422,5229555.32713671
3223,Greenfield & Foster Winter,Southbound,10,Greenfield,false, ,false, ,false, ,-83.2012489,42.4562929,66,-9261920.66091241,5229576.87303951
3224,Greenfield & 9 Mile,Southbound,10,Greenfield,false, ,true,Third-Party,false, ,-83.2013269,42.4587999,67,-9261929.34383269,5229955.14139497
3227,14th & Davison,Southbound,18,Fenkell,false, ,false, ,false, ,-83.1159699,42.395012,68,-9252427.44605705,5220335.21710993
3229,14th & Pasadena,Southbound,18,Fenkell,false, ,false, ,false, ,-83.1175491,42.3973561,69,-9252603.24179691,5220688.56027952
3230,14th & Clements,Southbound,18,Fenkell,false, ,false, ,false, ,-83.116507,42.3958311,70,-9252487.23575556,5220458.68448489
3231,14th & Labelle,Southbound,18,Fenkell,false, ,false, ,false, ,-83.1184272,42.3986641,71,-9252700.99144178,5220885.73032972
3233,Fenkell & Rosa Parks,Eastbound,18,Fenkell,false, ,false, ,false, ,-83.1190239,42.4030579,72,-9252767.41578194,5221548.08899077
3237,Oakman & Rosa Parks,Eastbound,43,Schoolcraft,false, ,false, ,false, ,-83.1163001,42.4013371,73,-9252464.20375291,5221288.67548488
3238,Oakman & Rosa Parks,Southbound,"18, 43","Fenkell, Schoolcraft",false, ,false, ,false, ,-83.117158,42.4012851,74,-9252559.70474407,5221280.83650782
3239,Rosa Parks & Chicago,Northbound,"18, 42","Fenkell, Mid-City Loop",false, ,true,Third-Party,false, ,-83.1020301,42.3802439,75,-9250875.67461929,5218109.4178687
3245,Rosa Parks & Monterey,Northbound,18,Fenkell,false, ,false, ,false, ,-83.1078321,42.3886821,76,-9251521.55030487,5219381.13137288
3246,Rosa Parks & Glendale,Northbound,"15, 18","Chicago/Davison, Fenkell",false, ,false, ,false, ,-83.111251,42.3936341,77,-9251902.14051195,5220127.52242289
3247,Rosa Parks & Cortland,Northbound,18,Fenkell,false, ,false, ,false, ,-83.1090409,42.3904231,78,-9251656.11330535,5219643.53718456
3249,Rosa Parks & Tyler,Northbound,"15, 18","Chicago/Davison, Fenkell",false, ,false, ,false, ,-83.1123919,42.3952489,79,-9252029.14491899,5220370.9261631
3250,Rosa Parks & Ford,Northbound,18,Fenkell,false, ,false, ,false, ,-83.1152698,42.399495,80,-9252349.51128155,5221010.98368359
3251,Glendale & Woodrow Wilson,Eastbound,15,Chicago/Davison,false, ,false, ,false, ,-83.1085619,42.3943519,81,-9251602.79126926,5220235.71783789
3253,Gratiot & Park Grove,Westbound,6,Gratiot,false, ,false, ,false, ,-82.981575,42.4294469,82,-9237466.67422384,5225527.16687318
3254,7 Mile & Shaftsbury,Westbound,7,Seven Mile,false, ,false, ,false, ,-83.2311051,42.429906,83,-9265244.23789343,5225596.40730644
3260,Webb & Woodrow Wilson,Eastbound,42,Mid-City Loop,false, ,false, ,false, ,-83.1030991,42.387413,84,-9250994.67515495,5219189.85553658
3272,Grand River & Northlawn,Eastbound,3,Grand River,false, ,true,City of Detroit,false, ,-83.1519488,42.3738491,85,-9256432.59888436,5217145.77716422
3275,McNichols & Inverness,Eastbound,32,McNichols,false, ,false, ,false, ,-83.1227998,42.417399,86,-9253187.74704722,5223710.31083269
3279,McNichols & Log Cabin,Westbound,32,McNichols,false, ,false, ,false, ,-83.121615,42.4175639,87,-9253055.85571453,5223735.17584414
3286,McNichols & Rosa Parks,Westbound,32,McNichols,false, ,false, ,false, ,-83.1189972,42.417581,88,-9252764.44355153,5223737.75432997
3287,McNichols & Rosa Parks,Eastbound,32,McNichols,false, ,false, ,false, ,-83.1186568,42.4174669,89,-9252726.55039687,5223720.5493589
3291,Cass & Ferry,Northbound,16,Dexter,false, ,false, ,false, ,-83.0689818,42.3602061,90,-9247196.75469171,5215090.2237108
3295,Cass @ Main Library,Northbound,16,Dexter,false, ,true,Third-Party,false, ,-83.0677862,42.358215,91,-9247063.66110852,5214790.26745038
3297,Cass & Kirby,Southbound,16,Dexter,false, ,false, ,false, ,-83.0687871,42.359571,92,-9247175.08078685,5214994.54580587
3299,Second & York,Northbound,"23, 42","Hamilton, Mid-City Loop",true,Third-Party,false, ,true,Third-Party,-83.073412,42.3638321,93,-9247689.92229982,5215636.4996474
3301,Cass & York,Northbound,16,Dexter,false, ,false, ,false, ,-83.07111,42.3640561,94,-9247433.66483202,5215670.24745738
3302,Cass & York,Southbound,16,Dexter,false, ,false, ,false, ,-83.0713111,42.3639231,95,-9247456.05118161,5215650.20968069
3303,Second & Amsterdam,Northbound,"23, 42","Hamilton, Mid-City Loop",false, ,false, ,false, ,-83.0744932,42.3656491,96,-9247810.28093327,5215910.2520945
3304,Cass & Milwaukee,Southbound,16,Dexter,false, ,false, ,false, ,-83.0737101,42.3679329,97,-9247723.10664003,5216254.34468904
3305,Cass & Baltimore,Northbound,16,Dexter,false, ,false, ,false, ,-83.073597,42.368107,98,-9247710.51640562,5216280.57627354
3309,Cass & Amsterdam,Northbound,16,Dexter,false, ,false, ,false, ,-83.07242,42.3663281,99,-9247579.49336495,5216012.55347266
3310,Cass & Amsterdam,Southbound,16,Dexter,false, ,false, ,false, ,-83.0723131,42.365697,100,-9247567.59331139,5215917.46890069
3314,Cass @ Main Library,Southbound,16,Dexter,false, ,false, ,false, ,-83.067756,42.3576721,101,-9247060.2992599,5214708.48202004
3316,Rosa Parks & Euclid,Northbound,"18, 42","Fenkell, Mid-City Loop",false, ,false, ,false, ,-83.095481,42.371053,102,-9250146.63214214,5216724.46006005
3338,Lodge Service Dr & Seward,Northbound,23,Hamilton,false, ,false, ,false, ,-83.0846791,42.3724519,103,-9248944.17013454,5216935.24434582
3342,Seward & Third,Westbound,23,Hamilton,false, ,false, ,false, ,-83.082929,42.3728529,104,-9248749.3498937,5216995.66732795
3343,Fort & McKinstry,Westbound,19,Fort,false, ,false, ,false, ,-83.0922039,42.3115611,105,-9249781.82703886,5207764.64493869
3346,Beaubien @ Children's Hospital,Southbound,42,Mid-City Loop,false, ,true,Third-Party,false, ,-83.0534842,42.3508471,106,-9245471.56975119,5213680.3868967
3350,St Antoine @ Detroit Receiving Hospital,Southbound,42,Mid-City Loop,false, ,true,Third-Party,false, ,-83.0534551,42.3539351,107,-9245468.33035401,5214145.53903645
3352,Greenfield & Grand River,Northbound,10,Greenfield,false, ,false, ,false, ,-83.1981779,42.3919779,108,-9261578.79875619,5219877.88483957
3354,Warren & John R,Eastbound,8,Warren,false, ,true,Third-Party,false, ,-83.0617219,42.3576531,109,-9246388.5863205,5214705.61976874
3355,Warren & John R,Westbound,8,Warren,false, ,false, ,false, ,-83.0625461,42.3576829,110,-9246480.33584481,5214710.10898432
3356,McNichols & Beaverland,Eastbound,32,McNichols,false, ,false, ,false, ,-83.2659832,42.4146141,111,-9269126.85022527,5223290.39002122
3358,Harper & Hereford,Eastbound,"7, 67","Seven Mile, Cadillac/Harper",false, ,false, ,false, ,-82.9314209,42.4202221,112,-9231883.54535065,5224136.0106612
3359,Warren & Wetherby,Eastbound,8,Warren,false, ,false, ,false, ,-83.1387269,42.344796,113,-9254960.74370904,5212768.96283537
3360,Warren & Brush,Westbound,8,Warren,false, ,true,City of Detroit,false, ,-83.0602471,42.3587789,114,-9246224.41233548,5214875.21718388
3365,St Antoine @ 4707,Southbound,42,Mid-City Loop,false, ,false, ,false, ,-83.055842,42.3575351,115,-9245734.03884658,5214687.84370112
3366,E Outer Dr & 7 Mile,Southbound,"32, 40","McNichols, Russell",false, ,false, ,false, ,-83.0147748,42.4338434,116,-9241162.45905428,5226190.25797871
3367,St Antoine & Hancock,Southbound,42,Mid-City Loop,false, ,true,Third-Party,true,DDOT,-83.0564249,42.3584121,117,-9245798.92697777,5214819.95984904
3371,St Antoine & Canfield,Southbound,42,Mid-City Loop,false, ,true,Third-Party,false, ,-83.0543941,42.3553459,118,-9245572.85935586,5214358.0585073
3374,Davison & Rosa Parks,Eastbound,15,Chicago/Davison,false, ,true,City of Detroit,false, ,-83.1127919,42.3963451,119,-9252073.67271531,5220536.16330893
3376,Rosa Parks & Davison,Northbound,18,Fenkell,false, ,false, ,false, ,-83.1132609,42.396553,120,-9252125.88155649,5220567.50171393
3377,Rosa Parks & Grand,Northbound,18,Fenkell,false, ,false, ,false, ,-83.1143199,42.3981019,121,-9252243.76889724,5220800.98288252
3380,Hamilton & Cortland,Northbound,"23, 42","Hamilton, Mid-City Loop",false, ,false, ,false, ,-83.1001958,42.393765,122,-9250671.48127733,5220147.25314677
3381,Hamilton & Glendale,Northbound,"15, 23, 42","Chicago/Davison, Hamilton, Mid-City Loop",false, ,false, ,false, ,-83.10207,42.3965769,123,-9250880.11626698,5220571.10435589
3382,Hamilton & Glendale,Southbound,23,Hamilton,false, ,false, ,false, ,-83.102062,42.3960441,124,-9250879.22571105,5220490.79139139
3384,Hamilton & Buena Vista,Southbound,23,Hamilton,false, ,false, ,false, ,-83.103166,42.397674,125,-9251002.12242889,5220736.4806652
3385,McNichols & Linwood,Eastbound,32,McNichols,false, ,false, ,false, ,-83.1277791,42.417297,126,-9253742.04018773,5223694.93044596
3386,McNichols & Normandy,Westbound,32,McNichols,false, ,false, ,false, ,-83.1274527,42.4175248,127,-9253705.70550594,5223729.28001077
3387,McNichols & Baylis,Westbound,32,McNichols,false, ,false, ,false, ,-83.1245599,42.417494,128,-9253383.68048297,5223724.63572518
3388,McNichols & Baylis,Eastbound,32,McNichols,false, ,false, ,false, ,-83.1240198,42.4173641,129,-9253323.55682599,5223705.048325
3400,Hamilton & Grove,Southbound,23,Hamilton,false, ,false, ,false, ,-83.1151149,42.415396,130,-9252332.26789242,5223408.28683585
3402,McNichols & Third,Eastbound,"23, 32","Hamilton, McNichols",false, ,false, ,false, ,-83.111876,42.4175871,131,-9251971.71519369,5223738.67414088
3403,McNichols & Third,Westbound,"23, 32","Hamilton, McNichols",false, ,false, ,false, ,-83.1131809,42.4177159,132,-9252116.97599723,5223758.09574282
3406,Second & Forest,Northbound,42,Mid-City Loop,false, ,true,City of Detroit,false, ,-83.067615,42.353297,133,-9247044.60321169,5214049.41877569
3408,Warren & Second,Eastbound,8,Warren,false, ,false, ,false, ,-83.068425,42.3552531,134,-9247134.77199924,5214344.07919506
3409,Warren & Second,Westbound,"8, 42","Warren, Mid-City Loop",false, ,false, ,false, ,-83.0692622,42.3553511,135,-9247227.96867693,5214358.84183144
3410,Warren & Cass,Eastbound,8,Warren,false, ,true,Third-Party,true,DDOT,-83.0657461,42.3561561,136,-9246836.55821535,5214480.10721571
3411,Cass & Warren,Northbound,16,Dexter,false, ,false, ,true,DDOT,-83.0667851,42.3563541,137,-9246952.21916628,5214509.93421906
3412,Warren & Cass,Westbound,8,Warren,false, ,true,Third-Party,false, ,-83.0670729,42.3560209,138,-9246984.25691574,5214459.74054823
3414,Cass & Warren,Southbound,16,Dexter,false, ,false, ,false, ,-83.066566,42.3556449,139,-9246927.82906585,5214403.09975069
3487,7 Mile & Glenhurst,Eastbound,17,Eight Mile,false, ,true,City of Detroit,false, ,-83.271211,42.4290071,140,-9269708.80625924,5225460.83769828
3508,Lahser & Vassar,Northbound,17,Eight Mile,false, ,false, ,false, ,-83.258334,42.4331159,141,-9268275.3451763,5226080.53140099
3509,Lahser & Vassar,Southbound,17,Eight Mile,false, ,false, ,false, ,-83.258546,42.4317139,142,-9268298.94490834,5225869.07566419
3511,Lahser & St Martins,Northbound,17,Eight Mile,false, ,false, ,false, ,-83.2584241,42.434922,143,-9268285.37506242,5226352.94222898
3512,Lahser & St Martins,Southbound,17,Eight Mile,false, ,false, ,false, ,-83.258641,42.4342471,144,-9268309.52025997,5226251.14735216
3514,Lahser & Pembroke,Northbound,17,Eight Mile,false, ,false, ,false, ,-83.2584739,42.436686,145,-9268290.91877306,5226619.01076776
3515,Lahser & Pembroke,Southbound,17,Eight Mile,false, ,false, ,false, ,-83.258669,42.4361099,146,-9268312.63720571,5226532.11533807
3516,Lahser & Fargo,Northbound,17,Eight Mile,false, ,false, ,false, ,-83.25853,42.4382201,147,-9268297.16379649,5226850.40900274
3517,Lahser & Fargo,Southbound,17,Eight Mile,false, ,false, ,false, ,-83.2587789,42.4377669,148,-9268324.87121775,5226782.0493231
3518,Lahser & Trojan,Northbound,17,Eight Mile,false, ,false, ,false, ,-83.2586269,42.4401289,149,-9268307.95065515,5227138.33357427
3519,Lahser & Trojan,Southbound,17,Eight Mile,false, ,false, ,false, ,-83.2588192,42.4395649,150,-9268329.35739323,5227053.25855283
3520,Lahser & Hessel,Northbound,17,Eight Mile,false, ,false, ,false, ,-83.2586498,42.4420271,151,-9268310.49987149,5227424.66793363
3521,Lahser & Hessel,Southbound,17,Eight Mile,false, ,false, ,false, ,-83.2589171,42.4412459,152,-9268340.25557138,5227306.8266127
3524,Lahser & 8 Mile,Southbound,17,Eight Mile,true,DDOT,true,Third-Party,false, ,-83.2589991,42.443013,153,-9268349.38376962,5227573.38963956
3539,8 Mile & Greenview,Westbound,17,Eight Mile,false, ,true,Third-Party,false, ,-83.2263012,42.4444691,154,-9264709.47019161,5227793.04467191
3541,8 Mile & Oxley,Westbound,17,Eight Mile,false, ,true,City of Detroit,false, ,-83.196086,42.4453349,155,-9261345.92951339,5227923.65441792
3583,Woodward & 8 Mile,Southbound,17,Eight Mile,false, ,false, ,false, ,-83.1249329,42.4458821,156,-9253425.20265303,5228006.20288063
3640,Van Dyke & Savage,Northbound,5,Van Dyke/Lafayette,false, ,false, ,false, ,-83.0245652,42.446332,157,-9242252.32139694,5228074.07358409
3641,Van Dyke & Savage,Southbound,5,Van Dyke/Lafayette,false, ,false, ,false, ,-83.0248251,42.44579,158,-9242281.2533326,5227992.30898255
3667,State Fair & Omira,Southbound,12,Conant,false, ,false, ,false, ,-83.0958999,42.4396709,159,-9250193.26387683,5227069.24777148
3668,State Fair & I-75 Service Dr,Northbound,12,Conant,false, ,false, ,false, ,-83.0959199,42.43978,160,-9250195.49026665,5227085.70462759
3669,State Fair & I-75 Service Dr,Southbound,12,Conant,false, ,false, ,false, ,-83.0941159,42.4397239,161,-9249994.66990526,5227077.24239094
3678,Schoenherr & State Fair,Southbound,68,Chalmers,false, ,false, ,false, ,-82.9854629,42.442018,162,-9237899.4732721,5227423.29522161
3679,Schoenherr & Fairmount,Southbound,68,Chalmers,false, ,false, ,false, ,-82.985555,42.443746,163,-9237909.7257972,5227683.9632331
3680,Schoenherr & Bringard,Southbound,68,Chalmers,false, ,false, ,false, ,-82.985624,42.4456671,164,-9237917.40684206,5227973.76873126
3681,Schoenherr & Collingham,Southbound,68,Chalmers,false, ,false, ,false, ,-82.9856991,42.4473809,165,-9237925.76693582,5228232.30970874
3682,Schoenherr & 8 Mile,Southbound,68,Chalmers,false, ,true,City of Detroit,false, ,-82.9857471,42.448841,166,-9237931.11027138,5228452.5835123
3684,Congress & Bates,Westbound,"5, 52, 67","Van Dyke/Lafayette, Chene, Cadillac/Harper",false, ,false, ,false, ,-83.044265,42.330946,167,-9244445.29310167,5210683.18906539
3689,Congress & Brush,Westbound,67,Cadillac/Harper,false, ,false, ,false, ,-83.042427,42.3317559,168,-9244240.68787759,5210805.14524185
3690,Congress & St Antoine,Westbound,67,Cadillac/Harper,false, ,false, ,false, ,-83.0396451,42.3329389,169,-9243931.00818616,5210983.28629932
3691,Larned & I-375 Service Dr,Eastbound,67,Cadillac/Harper,false, ,false, ,false, ,-83.0354908,42.3335489,170,-9243468.55362555,5211075.14394428
3692,Congress & I-375 Service Dr,Westbound,67,Cadillac/Harper,false, ,false, ,false, ,-83.037128,42.3332541,171,-9243650.80589588,5211030.75099085
3693,Larned & Rivard,Eastbound,67,Cadillac/Harper,false, ,false, ,false, ,-83.034302,42.3340849,172,-9243336.2170149,5211155.85893816
3694,Larned & Rivard,Westbound,67,Cadillac/Harper,false, ,false, ,false, ,-83.035211,42.3339919,173,-9243437.40643203,5211141.85423505
3695,Larned @ 1451,Eastbound,67,Cadillac/Harper,false, ,false, ,false, ,-83.0325661,42.3348129,174,-9243142.97751083,5211265.48786733
3696,Larned @ Lafayette Central Park,Westbound,67,Cadillac/Harper,false, ,true,Third-Party,false, ,-83.031562,42.335599,175,-9243031.20161012,5211383.86745335
3697,Larned & Orleans,Eastbound,67,Cadillac/Harper,false, ,false, ,false, ,-83.0295721,42.3361121,176,-9242809.68695539,5211461.13649418
3698,Larned & Orleans,Westbound,67,Cadillac/Harper,false, ,false, ,false, ,-83.0297581,42.3363541,177,-9242830.39238068,5211497.58011168
3702,Larned & St Aubin,Eastbound,67,Cadillac/Harper,false, ,false, ,false, ,-83.0279191,42.3368119,178,-9242625.67583711,5211566.52218161
3703,Larned & St Aubin,Westbound,67,Cadillac/Harper,false, ,false, ,false, ,-83.0275871,42.3373031,179,-9242588.71776617,5211640.49465927
3704,Larned @ Blain Clinic,Eastbound,67,Cadillac/Harper,false, ,false, ,false, ,-83.024914,42.338099,180,-9242291.14963533,5211760.35479258
3705,Larned @ Reuther Park,Westbound,67,Cadillac/Harper,false, ,false, ,false, ,-83.025192,42.3383311,181,-9242322.09645377,5211795.30863644
3706,Larned @ Ralph Bunche Apartments,Eastbound,67,Cadillac/Harper,false, ,false, ,false, ,-83.0199789,42.340244,182,-9241741.77681632,5212083.3928603
3709,Larned @ Ralph Bunche Apartments,Westbound,67,Cadillac/Harper,false, ,false, ,false, ,-83.0214231,42.339937,183,-9241902.54442492,5212037.15783176
3710,Larned & St Maron,Westbound,67,Cadillac/Harper,false, ,false, ,false, ,-83.0188971,42.34104,184,-9241621.35139118,5212203.27366003
3711,Lafayette & McDougall,Eastbound,5,Van Dyke/Lafayette,false, ,false, ,false, ,-83.0176551,42.34418,185,-9241483.09258361,5212676.18508411
3713,Lafayette & Robert Bradby,Westbound,5,Van Dyke/Lafayette,false, ,true,Third-Party,false, ,-83.0188119,42.3440771,186,-9241611.86697056,5212660.68707108
3715,Larned @ King High School,Eastbound,67,Cadillac/Harper,false, ,false, ,false, ,-83.0137459,42.3429069,187,-9241047.9224302,5212484.44225844
3717,Larned & McDougall,Eastbound,67,Cadillac/Harper,false, ,false, ,false, ,-83.0163469,42.341783,188,-9241337.46442575,5212315.17381616
3718,Larned & McDougall,Westbound,67,Cadillac/Harper,false, ,false, ,false, ,-83.0174189,42.3416841,189,-9241456.79891988,5212300.27882003
3719,Larned @ King High School,Westbound,67,Cadillac/Harper,false, ,false, ,false, ,-83.0159328,42.3423369,190,-9241291.36702462,5212398.59526396
3720,Mt Elliott & Larned,Northbound,67,Cadillac/Harper,false, ,false, ,false, ,-83.0107241,42.3449731,191,-9240711.53719292,5212795.63660711
3721,Larned & Mt Elliott,Westbound,67,Cadillac/Harper,false, ,false, ,false, ,-83.0112491,42.3443561,192,-9240769.97992559,5212702.70798157
3722,Kercheval & Mt Elliott,Eastbound,"12, 67","Conant, Cadillac/Harper",false, ,false, ,false, ,-83.015455,42.3526059,193,-9241238.17857192,5213945.31595518
3723,Mt Elliott & Kercheval,Westbound,67,Cadillac/Harper,false, ,false, ,false, ,-83.0156889,42.352211,194,-9241264.21620081,5213885.831295
3725,Mt Elliott & St Paul,Northbound,67,Cadillac/Harper,false, ,false, ,false, ,-83.0144841,42.3506601,195,-9241130.09847831,5213652.21941484
3726,Mt Elliott & St Paul,Westbound,67,Cadillac/Harper,false, ,false, ,false, ,-83.0145819,42.3505001,196,-9241140.9855245,5213628.11896213
3727,Lafayette & Mt Elliott,Eastbound,5,Van Dyke/Lafayette,false, ,false, ,false, ,-83.0117819,42.346964,197,-9240829.29095028,5213095.49955367
3728,Mt Elliott & Lafayette,Westbound,67,Cadillac/Harper,false, ,false, ,false, ,-83.0121869,42.346575,198,-9240874.37534405,5213036.90887991
3729,Mt Elliott & Lafayette,Northbound,67,Cadillac/Harper,false, ,false, ,false, ,-83.012227,42.3472201,199,-9240878.83925563,5213134.0732003
3734,Lafayette & Bellevue,Westbound,5,Van Dyke/Lafayette,false, ,false, ,false, ,-83.008648,42.3485205,200,-9240480.42679809,5213329.9411858
3736,Lafayette & Bellevue,Eastbound,5,Van Dyke/Lafayette,false, ,false, ,false, ,-83.0081029,42.3485793,201,-9240419.74654366,5213338.79781612
3738,Kercheval & Concord,Westbound,"12, 67","Conant, Cadillac/Harper",false, ,false, ,false, ,-83.0108919,42.3544389,202,-9240730.21660348,5214221.42969198
3743,Kercheval & Sheridan,Eastbound,67,Cadillac/Harper,false, ,false, ,false, ,-83.0049599,42.3564361,203,-9240069.86938409,5214522.28684393
3744,Kercheval & Sheridan,Westbound,67,Cadillac/Harper,false, ,false, ,false, ,-83.004479,42.356786,204,-9240016.33584097,5214574.9965792
3745,Kercheval @ Butzel Center,Westbound,67,Cadillac/Harper,false, ,true,City of Detroit,true,DDOT,-83.002557,42.3574971,205,-9239802.37977966,5214682.11921187
3746,Kercheval & Baldwin,Eastbound,67,Cadillac/Harper,false, ,false, ,false, ,-83.0025519,42.357289,206,-9239801.81205026,5214650.77016241
3747,Cadillac & Shoemaker,Northbound,"11, 67","Clairmount, Cadillac/Harper",false, ,false, ,false, ,-83.0016519,42.389659,207,-9239701.62450855,5219528.37013059
3748,Shoemaker & Cadillac,Eastbound,11,Clairmount,false, ,false, ,false, ,-83.0009701,42.3893811,208,-9239625.72687973,5219486.48469852
3750,Cadillac & Harper,Northbound,"11, 67","Clairmount, Cadillac/Harper",false, ,false, ,false, ,-83.0037511,42.3928269,209,-9239935.30638362,5220005.85304711
3753,Harper & Bewick,Eastbound,67,Cadillac/Harper,false, ,false, ,false, ,-83.0011921,42.3936511,210,-9239650.43980668,5220130.08485224
3754,Van Dyke & Lafayette,Northbound,5,Van Dyke/Lafayette,false, ,true,City of Detroit,true,DDOT,-82.9962829,42.35349,211,-9239103.95016248,5214078.49124808
3757,Van Dyke & Kercheval,Northbound,5,Van Dyke/Lafayette,false, ,true,City of Detroit,false, ,-82.9999911,42.3586329,212,-9239516.74509824,5214853.22267717
3758,Kercheval & Van Dyke,Westbound,67,Cadillac/Harper,false, ,true,City of Detroit,false, ,-83.0002459,42.3583851,213,-9239545.10930449,5214815.89239166
3759,Van Dyke & Kercheval,Southbound,5,Van Dyke/Lafayette,false, ,true,City of Detroit,true,DDOT,-82.999857,42.358185,214,-9239501.81715452,5214785.74806757
3760,Van Dyke & St Paul,Southbound,5,Van Dyke/Lafayette,false, ,false, ,false, ,-82.9984052,42.3561819,215,-9239340.20351779,5214483.99375931
3761,Van Dyke & St Paul,Northbound,5,Van Dyke/Lafayette,false, ,true,City of Detroit,false, ,-82.9983059,42.356302,216,-9239329.14949236,5214502.08579139
3763,Kercheval & Seminole,Eastbound,67,Cadillac/Harper,false, ,true,City of Detroit,false, ,-82.9967368,42.3595479,217,-9239154.47807935,5214991.06580582
3764,Kercheval & Iroquois,Westbound,67,Cadillac/Harper,false, ,false, ,false, ,-82.9960751,42.3599579,218,-9239080.81797229,5215052.83223054
3765,Kercheval & Burns,Eastbound,67,Cadillac/Harper,false, ,false, ,false, ,-82.9938521,42.3606849,219,-9238833.35474426,5215162.35563795
3767,Kercheval & Fischer,Westbound,67,Cadillac/Harper,false, ,false, ,false, ,-82.9929703,42.3612204,220,-9238735.19321728,5215243.03015499
3768,Kercheval & Hibbard,Eastbound,67,Cadillac/Harper,false, ,false, ,false, ,-82.9902282,42.3621099,221,-9238429.94404157,5215377.03724492
3769,Kercheval & Hibbard,Westbound,67,Cadillac/Harper,false, ,false, ,false, ,-82.9911132,42.3619348,222,-9238528.46179092,5215350.65750929
3770,McClellan & Marietta,Eastbound,67,Cadillac/Harper,false, ,false, ,false, ,-82.991838,42.368998,223,-9238609.14615785,5216414.82406183
3772,McClellan & Charlevoix,Eastbound,67,Cadillac/Harper,false, ,false, ,false, ,-82.9909138,42.36774,224,-9238506.26468446,5216225.28060018
3775,Pennsylvania & Kercheval,Westbound,67,Cadillac/Harper,false, ,false, ,false, ,-82.9856499,42.3643089,225,-9237920.29001687,5215708.33441602
3776,Pennsylvania & Charlevoix,Westbound,67,Cadillac/Harper,false, ,false, ,false, ,-82.9884689,42.3681799,226,-9238234.09966142,5216291.56011197
3778,Cadillac & Moffat,Northbound,67,Cadillac/Harper,false, ,false, ,false, ,-82.9984079,42.3849149,227,-9239340.50408041,5218813.35894091
3779,Cadillac & Moffat,Southbound,67,Cadillac/Harper,false, ,false, ,false, ,-82.9982911,42.3844329,228,-9239327.50196389,5218740.7169122
3780,Cadillac & Canfield,Southbound,67,Cadillac/Harper,false, ,false, ,false, ,-82.9938932,42.3778699,229,-9238837.92997533,5217751.6652773
3781,Cadillac & Canfield,Northbound,67,Cadillac/Harper,false, ,false, ,false, ,-82.994018,42.378386,230,-9238851.82264778,5217829.43839481
3786,McClellan & Goethe,Eastbound,67,Cadillac/Harper,false, ,false, ,false, ,-82.9927461,42.3702819,231,-9238710.23538744,5216608.27380294
3787,Pennsylvania & Marietta,Westbound,67,Cadillac/Harper,false, ,false, ,false, ,-82.9893029,42.369427,232,-9238326.94011674,5216479.46256498
3788,Pennsylvania & Goethe,Westbound,67,Cadillac/Harper,false, ,false, ,false, ,-82.9903199,42.370792,233,-9238440.15203888,5216685.13346656
3789,Cadillac & Sylvester,Northbound,67,Cadillac/Harper,false, ,false, ,false, ,-82.9923808,42.375947,234,-9238669.57037745,5217461.90162013
3790,Cadillac & Sylvester,Southbound,67,Cadillac/Harper,false, ,false, ,false, ,-82.9922149,42.375345,235,-9238651.10247393,5217371.18748268
3791,Mack & Cadillac,Eastbound,31,Mack,false, ,true,City of Detroit,false, ,-82.9904798,42.373643,236,-9238457.95202546,5217114.72132016
3792,Cadillac & Mack,Northbound,67,Cadillac/Harper,false, ,false, ,false, ,-82.9909619,42.3738209,237,-9238511.61915197,5217141.52788697
3793,Cadillac & Mack,Southbound,67,Cadillac/Harper,false, ,false, ,false, ,-82.9911161,42.37376,238,-9238528.78461745,5217132.3512628
3794,Mack & Cadillac,Westbound,31,Mack,false, ,false, ,false, ,-82.991201,42.3735041,239,-9238538.23564222,5217093.79145654
3796,Cadillac & Chapin,Southbound,67,Cadillac/Harper,false, ,false, ,false, ,-83.0001591,42.3872419,240,-9239535.44677269,5219164.06803349
3797,Cadillac & Chapin,Eastbound,67,Cadillac/Harper,false, ,false, ,false, ,-83.000283,42.3876849,241,-9239549.2392576,5219230.8353544
3799,Cadillac & Barker,Southbound,67,Cadillac/Harper,false, ,false, ,false, ,-82.9992728,42.3859051,242,-9239436.784308,5218962.59333972
3800,Harper & Garland,Westbound,67,Cadillac/Harper,false, ,false, ,false, ,-83.0007769,42.3939431,243,-9239604.21995411,5220174.09845292
3803,Harper & French,Eastbound,67,Cadillac/Harper,false, ,false, ,false, ,-82.9971242,42.3946939,244,-9239197.60325008,5220287.2686102
3804,Harper & Montclair,Westbound,67,Cadillac/Harper,false, ,false, ,false, ,-82.9969321,42.3950099,245,-9239176.2187759,5220334.90056764
3806,Harper & Anstell,Westbound,67,Cadillac/Harper,false, ,false, ,false, ,-82.993824,42.396094,246,-9238830.22666657,5220498.313166
3807,Harper & Lemay,Eastbound,67,Cadillac/Harper,false, ,false, ,false, ,-82.9951888,42.3954859,247,-9238982.1555076,5220406.65042463
3809,Harper & Beniteau,Eastbound,67,Cadillac/Harper,false, ,false, ,false, ,-82.9907441,42.3968189,248,-9238487.37376687,5220607.5830672
3810,Harper & Gunston,Westbound,67,Cadillac/Harper,false, ,false, ,false, ,-82.987893,42.3978909,249,-9238169.99076667,5220769.17640583
3811,Harper @ 11820,Eastbound,67,Cadillac/Harper,false, ,false, ,false, ,-82.9859571,42.3982629,250,-9237954.48736444,5220825.25235136
3812,Harper & Barrett,Westbound,67,Cadillac/Harper,false, ,false, ,false, ,-82.984708,42.3988361,251,-9237815.4381885,5220911.6581956
3813,Harper & Barrett,Eastbound,67,Cadillac/Harper,false, ,false, ,false, ,-82.9838768,42.398865,252,-9237722.90942775,5220916.01468701
3814,Harper & Norcross,Eastbound,67,Cadillac/Harper,false, ,false, ,false, ,-82.9819619,42.399441,253,-9237509.74373483,5221002.84344652
3815,Harper & Norcross,Westbound,67,Cadillac/Harper,false, ,false, ,false, ,-82.9825049,42.3995009,254,-9237570.19021833,5221011.87308029
3816,Harper & Annsbury,Eastbound,67,Cadillac/Harper,false, ,false, ,false, ,-82.9784698,42.400469,255,-9237121.00494103,5221157.81064382
3817,Harper & Annsbury,Westbound,67,Cadillac/Harper,false, ,false, ,false, ,-82.9789571,42.4005691,256,-9237175.25092889,5221172.90048419
3818,Harper & Park Dr,Eastbound,67,Cadillac/Harper,false, ,false, ,false, ,-82.975893,42.4012301,257,-9236834.15687715,5221272.54528914
3819,Harper & Park Dr,Westbound,67,Cadillac/Harper,false, ,false, ,false, ,-82.9762641,42.401345,258,-9236875.46754019,5221289.86640697
3820,Harper & Dickerson,Eastbound,67,Cadillac/Harper,false, ,false, ,false, ,-82.9728071,42.4021369,259,-9236490.63606051,5221409.24580055
3821,Harper & Dickerson,Westbound,67,Cadillac/Harper,false, ,false, ,false, ,-82.9736759,42.4021009,260,-9236587.35043412,5221403.81874656
3824,Harper & Lakeview,Westbound,67,Cadillac/Harper,false, ,false, ,false, ,-82.9698242,42.4032634,261,-9236158.58115143,5221579.06893836
3825,Harper & Lakeview,Eastbound,67,Cadillac/Harper,false, ,false, ,false, ,-82.9693139,42.4031811,262,-9236101.77481527,5221566.66187174
3833,Harper & E Outer Dr,Eastbound,67,Cadillac/Harper,false, ,false, ,false, ,-82.961224,42.4055708,263,-9235201.21126671,5221926.92569111
3834,Harper & E Outer Dr,Westbound,67,Cadillac/Harper,false, ,false, ,false, ,-82.9612572,42.4057738,264,-9235204.9070738,5221957.5299789
3838,Harper & Barham,Eastbound,67,Cadillac/Harper,false, ,false, ,false, ,-82.955879,42.407115,265,-9234606.20858842,5222159.731831
3839,Harper & Beaconsfield,Westbound,67,Cadillac/Harper,false, ,false, ,false, ,-82.955849,42.407312,266,-9234602.86900369,5222189.43228822
3840,Harper & Nottingham,Eastbound,67,Cadillac/Harper,false, ,true,City of Detroit,false, ,-82.9540461,42.4075791,267,-9234402.17109374,5222229.70143274
3841,Harper & Somerset,Westbound,67,Cadillac/Harper,false, ,false, ,false, ,-82.9537621,42.4077891,268,-9234370.55635836,5222261.36205613
3843,Harper & Chatsworth,Eastbound,67,Cadillac/Harper,false, ,false, ,false, ,-82.9506532,42.4083569,269,-9234024.47519343,5222346.9668819
3844,Harper & Berkshire,Westbound,67,Cadillac/Harper,false, ,false, ,false, ,-82.9505592,42.408549,270,-9234014.01116129,5222375.92916904
3845,Harper & Devonshire,Westbound,67,Cadillac/Harper,false, ,false, ,false, ,-82.946959,42.409399,271,-9233613.23873054,5222504.08194654
3847,Harper & Bedford,Eastbound,67,Cadillac/Harper,false, ,false, ,false, ,-82.945619,42.4098881,272,-9233464.07061288,5222577.82334951
3848,Harper & Courville,Westbound,67,Cadillac/Harper,false, ,false, ,false, ,-82.944662,42.410882,273,-9233357.53786019,5222727.67500936
3849,Harper & Courville,Eastbound,67,Cadillac/Harper,false, ,false, ,false, ,-82.9440929,42.4110549,274,-9233294.18593798,5222753.74362087
3853,Harper & Yorkshire,Eastbound,"32, 67","McNichols, Cadillac/Harper",false, ,false, ,false, ,-82.9400751,42.4140709,275,-9232846.92648787,5223208.48584788
3854,Harper & Bishop,Westbound,"32, 67","McNichols, Cadillac/Harper",false, ,true,City of Detroit,false, ,-82.9397409,42.4145651,276,-9232809.72351404,5223283.00172906
3857,Harper & Cadieux,Westbound,"32, 67","McNichols, Cadillac/Harper",false, ,true,City of Detroit,false, ,-82.9371051,42.416334,277,-9232516.30760021,5223549.72273372
3858,Harper & Cadieux,Westbound,7,Seven Mile,false, ,true,City of Detroit,false, ,-82.9363967,42.4167118,278,-9232437.44887294,5223606.68973031
3859,Harper & Cadieux,Eastbound,67,Cadillac/Harper,false, ,true,City of Detroit,false, ,-82.936214,42.416474,279,-9232417.11080197,5223570.83275067
3861,Cadieux & Harper,Southbound,32,McNichols,false, ,false, ,false, ,-82.936379,42.415902,280,-9232435.47851795,5223484.58354995
3863,Harper & Guilford,Eastbound,67,Cadillac/Harper,false, ,false, ,false, ,-82.9338361,42.4178929,281,-9232152.40418481,5223784.78543168
3869,Chester & Hereford,Westbound,"7, 67","Seven Mile, Cadillac/Harper",false, ,false, ,false, ,-82.9311211,42.419679,282,-9231850.17176731,5224054.11424231
3874,Chester & Marseilles,Westbound,"7, 67","Seven Mile, Cadillac/Harper",false, ,false, ,false, ,-82.9290431,42.4203691,283,-9231618.84986544,5224158.17755463
3878,Chester & Canyon,Westbound,"7, 67","Seven Mile, Cadillac/Harper",false, ,false, ,false, ,-82.9260322,42.4214211,284,-9231283.67801061,5224316.81561489
3881,Moross & Mallina,Eastbound,"7, 17, 67","Seven Mile, Eight Mile, Cadillac/Harper",false, ,false, ,false, ,-82.9218422,42.4213001,285,-9230817.24934418,5224298.56908656
3886,Moross & Rolandale,Eastbound,"7, 17, 67","Seven Mile, Eight Mile, Cadillac/Harper",false, ,false, ,false, ,-82.9196681,42.4204249,286,-9230575.22963925,5224166.59194003
3888,Moross & Rolandale,Westbound,"7, 17, 67","Seven Mile, Eight Mile, Cadillac/Harper",false, ,false, ,false, ,-82.9198869,42.4210669,287,-9230599.58634383,5224263.40314948
3890,Moross & Chester,Southbound,"7, 17, 67","Seven Mile, Eight Mile, Cadillac/Harper",false, ,false, ,false, ,-82.9231799,42.4218369,288,-9230966.16142702,5224379.51758973
3892,Moross & Chester,Eastbound,17,Eight Mile,false, ,true,Third-Party,false, ,-82.9235171,42.4225391,289,-9231003.69835931,5224485.4091705
3893,Chester & Moross,Westbound,"7, 67","Seven Mile, Cadillac/Harper",false, ,true,Third-Party,false, ,-82.9240771,42.421966,290,-9231066.03727416,5224398.9857478
3895,Moross & Linville,Westbound,"7, 17, 67","Seven Mile, Eight Mile, Cadillac/Harper",false, ,false, ,false, ,-82.9175139,42.4200991,291,-9230335.42519218,5224117.46289234
3896,Moross & Linville,Eastbound,"7, 17, 67","Seven Mile, Eight Mile, Cadillac/Harper",false, ,false, ,false, ,-82.9174028,42.4195079,292,-9230323.05759676,5224028.31347363
3902,Warren & Rohns,Westbound,8,Warren,false, ,true,City of Detroit,false, ,-83.0036308,42.3795851,293,-9239921.91464888,5218010.13790822
3904,Forest & Holcomb,Eastbound,8,Warren,false, ,false, ,false, ,-83.0005821,42.3779811,294,-9239582.5349173,5217768.42238403
3905,Warren & Belvidere,Westbound,8,Warren,false, ,false, ,false, ,-83.0015998,42.3803591,295,-9239695.82476308,5218126.77840594
3908,Forest & McClellan,Eastbound,8,Warren,false, ,false, ,false, ,-82.9984651,42.3788281,296,-9239346.87155529,5217896.06067264
3909,Warren & Cooper,Westbound,8,Warren,false, ,false, ,false, ,-82.9993169,42.3815101,297,-9239441.69349755,5218300.23482823
3911,Forest & Pennsylvania,Eastbound,8,Warren,false, ,false, ,false, ,-82.9961771,42.3797201,298,-9239092.17256035,5218030.48207757
3912,Cadillac & Forest,Southbound,67,Cadillac/Harper,false, ,false, ,false, ,-82.9952091,42.379841,299,-9238984.41529327,5218048.70144857
3913,Cadillac & Forest,Northbound,67,Cadillac/Harper,false, ,false, ,false, ,-82.9951089,42.3799361,300,-9238973.26108029,5218063.03283949
3914,Warren & Bewick,Eastbound,8,Warren,false, ,false, ,false, ,-82.9942369,42.383245,301,-9238876.19048432,5218561.69135555
3915,Warren & Garland,Westbound,8,Warren,false, ,false, ,false, ,-82.993856,42.3835821,302,-9238833.78889027,5218612.49454288
3916,Warren & St Clair,Eastbound,8,Warren,false, ,false, ,false, ,-82.9921581,42.384027,303,-9238644.77952685,5218679.54431686
3917,Warren & Harding,Westbound,8,Warren,false, ,false, ,false, ,-82.991821,42.3843891,304,-9238607.25372651,5218734.11585922
3918,Chalmers & Chandler Park Dr,Southbound,68,Chalmers,false, ,false, ,false, ,-82.9619309,42.4001619,305,-9235279.90301475,5221111.51618889
3919,Chalmers & Chandler Park Dr,Northbound,68,Chalmers,false, ,false, ,false, ,-82.9621331,42.4007199,306,-9235302.41181579,5221195.63327616
3920,Chalmers & Frankfort,Northbound,68,Chalmers,false, ,false, ,false, ,-82.9598791,42.397321,307,-9235051.49768354,5220683.26930498
3921,Chalmers & Frankfort,Southbound,68,Chalmers,false, ,false, ,false, ,-82.959857,42.3968239,308,-9235049.03752279,5220608.33676107
3925,Warren & Alter,Westbound,8,Warren,false, ,true,Third-Party,false, ,-82.9549242,42.3970059,309,-9234499.92073861,5220635.77125866
3926,Warren & Alter,Eastbound,8,Warren,false, ,true,Third-Party,false, ,-82.9540168,42.3970619,310,-9234398.90943266,5220644.21265854
3928,Warren & Maryland,Westbound,8,Warren,false, ,true,City of Detroit,false, ,-82.9528081,42.39777,311,-9234264.35756414,5220750.95179511
3929,Warren & Barham,Eastbound,8,Warren,false, ,false, ,false, ,-82.9505059,42.3983487,312,-9234008.07783243,5220838.18604403
3932,Warren & Nottingham,Westbound,8,Warren,false, ,true,Third-Party,false, ,-82.9491939,42.3991041,313,-9233862.02666051,5220952.05757011
3934,Warren & Balfour,Westbound,8,Warren,false, ,false, ,false, ,-82.9469621,42.3999349,314,-9233613.58382096,5221077.29672765
3935,Warren & Chatsworth,Eastbound,8,Warren,false, ,false, ,false, ,-82.945345,42.400232,315,-9233433.5690724,5221122.08354533
3938,Warren & Haverhill,Westbound,8,Warren,false, ,false, ,false, ,-82.9431902,42.4012899,316,-9233193.69783364,5221281.56010543
3940,Chalmers & Maiden,Southbound,68,Chalmers,false, ,false, ,false, ,-82.9669378,42.4084051,317,-9235837.2685732,5222354.23382953
3941,Chalmers & Corbett,Northbound,68,Chalmers,false, ,false, ,false, ,-82.9675111,42.4096101,318,-9235901.08803727,5222535.90933495
3942,Chalmers & Kent,Northbound,68,Chalmers,false, ,false, ,false, ,-82.9657129,42.4067971,319,-9235700.91332893,5222111.80423403
3944,Chalmers & Queen,Northbound,68,Chalmers,false, ,false, ,false, ,-82.9666678,42.4082749,320,-9235807.21231069,5222334.60403778
3945,Chalmers & Linville,Southbound,68,Chalmers,false, ,false, ,false, ,-82.963094,42.401907,321,-9235409.37871449,5221374.5880843
3946,Whittier & Beaconsfield,Westbound,32,McNichols,false, ,false, ,false, ,-82.9520959,42.4166089,322,-9234185.0758228,5223591.17380443
3947,Whittier & Beaconsfield,Eastbound,32,McNichols,false, ,false, ,false, ,-82.951139,42.4160629,323,-9234078.55420206,5223508.84482776
3948,Whittier & Somerset,Eastbound,32,McNichols,false, ,false, ,false, ,-82.9492119,42.4152809,324,-9233864.03041135,5223390.93168109
3949,Whittier & Somerset,Westbound,32,McNichols,false, ,false, ,false, ,-82.9499881,42.415775,325,-9233950.4366001,5223465.43392155
3950,Whittier & King Richard,Westbound,32,McNichols,false, ,false, ,false, ,-82.9453101,42.4138091,326,-9233429.68402217,5223169.01166716
3951,Whittier & King Richard,Eastbound,32,McNichols,false, ,false, ,false, ,-82.9453531,42.4136771,327,-9233434.47076028,5223149.10878139
3952,Whittier & McKinney,Westbound,32,McNichols,false, ,false, ,false, ,-82.9476731,42.4147861,328,-9233692.73197892,5223316.32448025
3953,Whittier & McKinney,Eastbound,32,McNichols,false, ,false, ,false, ,-82.947229,42.4144451,329,-9233643.29499305,5223264.90797669
3954,Warren & Devonshire,Eastbound,8,Warren,false, ,false, ,false, ,-82.9416161,42.401625,330,-9233018.46982318,5221332.07640046
3956,Warren & Courville,Eastbound,8,Warren,false, ,false, ,false, ,-82.9390259,42.4026099,331,-9232730.13007813,5221480.5515492
3957,Warren & Courville,Westbound,8,Warren,true,Third-Party,true,City of Detroit,false, ,-82.9392561,42.4027,332,-9232755.75582491,5221494.13437538
3961,Warren & E Outer Dr,Eastbound,8,Warren,false, ,false, ,false, ,-82.9360611,42.403666,333,-9232400.09005182,5221639.76279407
3963,Harper & Whittier,Eastbound,"32, 67","McNichols, Cadillac/Harper",false, ,false, ,false, ,-82.9419341,42.4126729,334,-9233053.86942125,5222997.69744155
3964,Harper & Whittier,Westbound,67,Cadillac/Harper,false, ,false, ,true,DDOT,-82.9427408,42.412299,335,-9233143.67085448,5222941.32213982
3967,Warren & Yorkshire,Westbound,8,Warren,false, ,true,City of Detroit,false, ,-82.9338349,42.40466,336,-9232152.27060142,5221789.61466706
3968,Warren & Bishop,Eastbound,8,Warren,false, ,false, ,false, ,-82.9324148,42.4050252,337,-9231994.18579254,5221844.67150492
3970,Cadieux & Southampton,Southbound,32,McNichols,false, ,false, ,false, ,-82.9319571,42.409196,338,-9231943.23486161,5222473.47589007
3971,Cadieux & Southampton,Northbound,32,McNichols,false, ,false, ,false, ,-82.931788,42.4092861,339,-9231924.41073572,5222487.06014231
3975,Cadieux & Chandler Park Dr,Southbound,32,McNichols,false, ,false, ,false, ,-82.9329731,42.41069,340,-9232056.33546426,5222698.7267222
3976,Cadieux & Chandler Park Dr,Northbound,32,McNichols,false, ,false, ,false, ,-82.9332301,42.411462,341,-9232084.94457339,5222815.12349833
3977,Cadieux & Berden,Southbound,32,McNichols,false, ,false, ,false, ,-82.9352002,42.414107,342,-9232304.2551022,5223213.9290156
3978,Cadieux & Berden,Northbound,32,McNichols,false, ,false, ,false, ,-82.9352399,42.4145049,343,-9232308.67448599,5223273.92469229
3979,Miller & Dix,Northbound,54,Wyoming,false, ,false, ,false, ,-83.149426,42.2992761,344,-9256151.76207298,5205915.5100642
3984,Fort & Dearborn,Eastbound,19,Fort,false, ,false, ,false, ,-83.1354611,42.2939,345,-9254597.196516,5205106.41443066
3986,Fort & Dearborn,Northbound,19,Fort,false, ,false, ,false, ,-83.13605,42.293953,346,-9254662.75256413,5205114.39052045
3987,Dearborn & Stone,Northbound,54,Wyoming,false, ,false, ,false, ,-83.1328239,42.2934561,347,-9254303.62475488,5205039.61117992
3988,Dearborn & Stone,Southbound,54,Wyoming,false, ,false, ,false, ,-83.131797,42.2933041,348,-9254189.31076979,5205016.73655484
3994,Wyoming & Wren,Southbound,1,Vernor,false, ,false, ,false, ,-83.1526082,42.311023,349,-9256506.00295659,5207683.64271518
3995,Eagle & Wyoming,Southbound,"1, 54","Vernor, Wyoming",false, ,false, ,false, ,-83.1534871,42.3116661,350,-9256603.84165704,5207780.45106565
3996,Wyoming & Eagle,Northbound,54,Wyoming,false, ,false, ,false, ,-83.1531868,42.312203,351,-9256570.41241396,5207861.27347364
3998,Wyoming @ 6011,Southbound,54,Wyoming,false, ,false, ,false, ,-83.1569409,42.332851,352,-9256988.31691434,5210970.04983671
4000,Wyoming & Ford,Southbound,54,Wyoming,false, ,false, ,false, ,-83.1569359,42.330973,353,-9256987.76031689,5210687.25474791
4003,Dearborn & Woodmere,Northbound,54,Wyoming,false, ,false, ,false, ,-83.1301168,42.2932381,354,-9254002.27176136,5205006.80416903
4004,Dearborn & Woodmere,Southbound,54,Wyoming,false, ,false, ,false, ,-83.130177,42.2931289,355,-9254008.9731947,5204990.37060809
4007,Dearborn & Melville,Southbound,54,Wyoming,false, ,false, ,false, ,-83.124876,42.2926031,356,-9253418.86857401,5204911.24311009
4009,Dearborn & Harbaugh,Northbound,54,Wyoming,false, ,false, ,false, ,-83.1230411,42.2923031,357,-9253214.60844035,5204866.09648822
4010,Thaddeus & Dearborn,Southbound,54,Wyoming,false, ,false, ,false, ,-83.1201412,42.2917909,358,-9252891.793049,5204789.0166528
4011,Dearborn & Thaddeus,Northbound,54,Wyoming,false, ,false, ,false, ,-83.1208001,42.291799,359,-9252965.14146148,5204790.23559885
4012,Dearborn & Jefferson,Northbound,54,Wyoming,false, ,false, ,false, ,-83.1169538,42.291028,360,-9252536.97330404,5204674.21069571
4015,Wyoming & Brandt,Northbound,54,Wyoming,false, ,false, ,false, ,-83.1569321,42.3394171,361,-9256987.33730283,5211958.86000348
4016,Wyoming & Brandt,Southbound,54,Wyoming,false, ,false, ,false, ,-83.1571489,42.3386321,362,-9257011.47136843,5211840.63888893
4017,Wyoming & Whitlock,Northbound,54,Wyoming,false, ,false, ,false, ,-83.1569968,42.3413861,363,-9256994.53967388,5212255.39818466
4018,Wyoming & Whitlock,Southbound,54,Wyoming,false, ,false, ,false, ,-83.1572738,42.341161,364,-9257025.37517283,5212221.4968793
4022,Wyoming & Gould,Northbound,54,Wyoming,false, ,false, ,false, ,-83.1571599,42.3465451,365,-9257012.69588283,5213032.40539583
4023,Wyoming & Diversey,Northbound,54,Wyoming,false, ,false, ,false, ,-83.1572499,42.3485659,366,-9257022.714637,5213336.77946767
4024,Wyoming & Diversey,Southbound,54,Wyoming,false, ,false, ,false, ,-83.1574892,42.3479801,367,-9257049.35339115,5213248.54492372
4025,Wyoming & Morross,Northbound,54,Wyoming,false, ,false, ,false, ,-83.157316,42.350255,368,-9257030.07285534,5213591.2002001
4026,Wyoming & Morross,Southbound,54,Wyoming,false, ,false, ,false, ,-83.1575471,42.3496309,369,-9257055.79878966,5213497.19432463
4027,Wyoming & Tireman,Southbound,54,Wyoming,false, ,false, ,false, ,-83.1576331,42.351402,370,-9257065.37226587,5213763.97100328
4030,Wyoming & Tireman,Northbound,54,Wyoming,false, ,false, ,false, ,-83.157414,42.3519411,371,-9257040.98216544,5213845.17587623
4031,Wyoming & Belton,Northbound,54,Wyoming,false, ,false, ,false, ,-83.1575359,42.3542809,372,-9257054.55201137,5214197.62906363
4032,Wyoming & Belton,Southbound,54,Wyoming,false, ,false, ,false, ,-83.15774,42.3538689,373,-9257077.27231944,5214135.5669471
4033,Wyoming & Mackenzie,Northbound,54,Wyoming,false, ,false, ,false, ,-83.1576902,42.3567651,374,-9257071.7286088,5214571.84814722
4034,Wyoming & Mackenzie,Southbound,54,Wyoming,false, ,false, ,false, ,-83.1578881,42.35633,375,-9257093.75873602,5214506.30375555
4039,Wyoming & Oakman,Northbound,54,Wyoming,false, ,false, ,false, ,-83.1579691,42.36241,376,-9257102.77561478,5215422.24905875
4040,Wyoming & Oakman,Southbound,54,Wyoming,false, ,false, ,false, ,-83.1581291,42.361121,377,-9257120.5867333,5215228.05522535
4041,Wyoming & Westfield,Northbound,54,Wyoming,false, ,false, ,false, ,-83.1580319,42.3643059,378,-9257109.7664788,5215707.8824338
4042,Wyoming & Westfield,Southbound,54,Wyoming,false, ,false, ,false, ,-83.1582271,42.3636291,379,-9257131.4960434,5215605.91579854
4044,Wyoming & Chicago,Northbound,54,Wyoming,false, ,false, ,false, ,-83.1581211,42.3666009,380,-9257119.69617738,5216053.65513301
4046,Wyoming & Chicago,Southbound,54,Wyoming,false, ,true,City of Detroit,false, ,-83.1583061,42.365798,381,-9257140.29028318,5215932.68598396
4050,Wyoming & Orangelawn,Southbound,54,Wyoming,false, ,false, ,false, ,-83.1584401,42.3688951,382,-9257155.20709494,5216399.31992707
4051,Wyoming & Orangelawn,Northbound,54,Wyoming,false, ,false, ,false, ,-83.1582811,42.3696931,383,-9257137.5072959,5216519.55673946
4052,Wyoming & Maplelawn,Southbound,54,Wyoming,false, ,false, ,false, ,-83.158508,42.3703001,384,-9257162.76568837,5216611.01608955
4053,Wyoming & Elmira,Northbound,54,Wyoming,false, ,false, ,false, ,-83.1583859,42.3716581,385,-9257149.17357854,5216815.6351014
4054,Wyoming & Aurora,Southbound,54,Wyoming,false, ,false, ,false, ,-83.1586009,42.371791,386,-9257173.10726906,5216835.6602777
4055,Wyoming & Plymouth,Northbound,54,Wyoming,false, ,false, ,false, ,-83.1584889,42.373833,387,-9257160.63948609,5217143.35115818
4056,Wyoming & Plymouth,Southbound,54,Wyoming,false, ,true,City of Detroit,false, ,-83.1586639,42.3731669,388,-9257180.12039698,5217042.98135385
4057,Plymouth & Wyoming,Westbound,38,Plymouth,false, ,false, ,false, ,-83.1588228,42.373597,389,-9257197.80906407,5217107.78989872
4058,Plymouth & Wyoming,Eastbound,38,Plymouth,false, ,false, ,false, ,-83.1582169,42.3734281,390,-9257130.3605846,5217082.33957091
4063,Wyoming & Cortland,Northbound,54,Wyoming,false, ,false, ,false, ,-83.1586692,42.3791859,391,-9257180.71039028,5217949.9797019
4064,Wyoming & Fullerton,Northbound,54,Wyoming,false, ,false, ,false, ,-83.158749,42.3809701,392,-9257189.59368565,5218218.85609341
4065,Wyoming & Fullerton,Southbound,54,Wyoming,false, ,false, ,false, ,-83.158909,42.380488,393,-9257207.40480417,5218146.20355873
4066,Wyoming & I-96 Service Dr,Southbound,54,Wyoming,false, ,false, ,false, ,-83.1591865,42.3862528,394,-9257238.29596287,5219014.99624154
4067,Wyoming & Buena Vista,Northbound,54,Wyoming,false, ,false, ,false, ,-83.1588022,42.383886,395,-9257195.51588256,5218658.29450564
4068,Wyoming & Buena Vista,Southbound,54,Wyoming,false, ,false, ,false, ,-83.1589788,42.3834601,396,-9257215.17490463,5218594.10830891
4069,Wyoming & Davison,Northbound,54,Wyoming,false, ,true,City of Detroit,false, ,-83.1588991,42.3865851,397,-9257206.30274122,5219065.07843477
4070,Wyoming & Intervale,Northbound,54,Wyoming,false, ,false, ,false, ,-83.1591259,42.3918751,398,-9257231.55000173,5219862.39010224
4071,Wyoming & Intervale,Southbound,54,Wyoming,false, ,false, ,false, ,-83.159294,42.391412,399,-9257250.26280813,5219792.58873545
4073,Wyoming & Lyndon,Northbound,54,Wyoming,false, ,false, ,false, ,-83.1593181,42.395677,400,-9257252.94560786,5220435.45603502
4074,Wyoming & Lyndon,Southbound,54,Wyoming,false, ,false, ,false, ,-83.1594592,42.39499,401,-9257268.65278801,5220331.90095312
4075,Wyoming & Eaton,Northbound,54,Wyoming,false, ,false, ,false, ,-83.1593862,42.3981691,402,-9257260.52646518,5220811.1127402
4076,Wyoming & Eaton,Southbound,54,Wyoming,false, ,false, ,false, ,-83.1596001,42.3981368,403,-9257284.33770426,5220806.24377451
4077,Wyoming & Chalfonte,Southbound,54,Wyoming,false, ,false, ,false, ,-83.1596961,42.3999469,404,-9257295.02437538,5221079.10568286
4078,Wyoming & Desoto,Northbound,54,Wyoming,false, ,false, ,false, ,-83.1594969,42.401306,405,-9257272.84953281,5221283.98717282
4088,Wyoming & Lodge Service Dr,Southbound,54,Wyoming,false, ,false, ,false, ,-83.1598411,42.403843,406,-9257311.16570154,5221666.44650515
4091,Wyoming & Midland,Northbound,54,Wyoming,false, ,false, ,false, ,-83.1597129,42.4059529,407,-9257296.89454282,5221984.531184
4092,Wyoming & Midland,Southbound,54,Wyoming,false, ,false, ,false, ,-83.1599569,42.4059561,408,-9257324.05649858,5221985.01361829
4093,Wyoming & Pilgrim,Northbound,54,Wyoming,false, ,false, ,false, ,-83.159827,42.408134,409,-9257309.59609672,5222313.36109092
4094,Wyoming & Pilgrim,Southbound,54,Wyoming,false, ,false, ,false, ,-83.160011,42.4076359,410,-9257330.07888303,5222238.26486709
4095,Wyoming & Florence,Northbound,54,Wyoming,false, ,false, ,false, ,-83.1600569,42.4122901,411,-9257335.18844766,5222939.98023382
4096,Wyoming & Florence,Southbound,54,Wyoming,false, ,true,City of Detroit,false, ,-83.1601838,42.411913,412,-9257349.31489104,5222883.12279603
4097,Wyoming & Marygrove,Northbound,54,Wyoming,false, ,false, ,false, ,-83.1600699,42.413995,413,-9257336.63560104,5223197.04163567
4098,Wyoming & Grove,Southbound,54,Wyoming,false, ,false, ,false, ,-83.1602859,42.4142981,414,-9257360.68061105,5223242.74317723
4099,Wyoming & Santa Maria,Northbound,54,Wyoming,false, ,false, ,false, ,-83.1603238,42.4189231,415,-9257364.89961975,5223940.12996353
4100,Wyoming & Santa Maria,Southbound,54,Wyoming,false, ,false, ,false, ,-83.1604649,42.4184871,416,-9257380.6067999,5223874.38492685
4101,Wyoming & Santa Clara,Northbound,54,Wyoming,false, ,false, ,false, ,-83.1604342,42.420783,417,-9257377.18929153,5224220.59196436
4102,Wyoming & Santa Clara,Southbound,54,Wyoming,false, ,false, ,false, ,-83.1606088,42.4203309,418,-9257396.62567463,5224152.41717324
4103,Wyoming & Thatcher,Northbound,54,Wyoming,false, ,false, ,false, ,-83.1605248,42.4226071,419,-9257387.2748374,5224495.66361613
4104,Wyoming & Thatcher,Southbound,54,Wyoming,false, ,false, ,false, ,-83.1607171,42.4221829,420,-9257408.68157548,5224431.69415321
4105,Wyoming & Pickford,Northbound,54,Wyoming,false, ,false, ,false, ,-83.1606859,42.426213,421,-9257405.20840737,5225039.45168853
4106,Wyoming & Margareta,Northbound,54,Wyoming,false, ,false, ,false, ,-83.1607931,42.4279121,422,-9257417.14185678,5225295.69545783
4107,Wyoming & Margareta,Southbound,54,Wyoming,false, ,false, ,false, ,-83.1609342,42.4275299,423,-9257432.84903693,5225238.05470842
4108,Wyoming & Clarita,Northbound,54,Wyoming,false, ,true,Third-Party,false, ,-83.16081,42.4298141,424,-9257419.02315617,5225582.54711377
4109,Wyoming & Clarita,Southbound,54,Wyoming,false, ,false, ,false, ,-83.1610131,42.4293511,425,-9257441.63214475,5225512.7185958
4110,Wyoming & 7 Mile,Northbound,54,Wyoming,false, ,true,City of Detroit,false, ,-83.1608741,42.4316711,426,-9257426.15873553,5225862.62045647
4111,Wyoming & 7 Mile,Southbound,54,Wyoming,false, ,true,City of Detroit,false, ,-83.1610952,42.4310631,427,-9257450.77147495,5225770.9207855
4112,7 Mile & Wyoming,Westbound,7,Seven Mile,false, ,true,City of Detroit,false, ,-83.161271,42.4314719,428,-9257470.34144143,5225832.5766505
4113,7 Mile & Wyoming,Eastbound,7,Seven Mile,false, ,true,City of Detroit,true,DDOT,-83.1605721,42.4312329,429,-9257392.54024931,5225796.53024225
4114,Wyoming & Cambridge,Northbound,54,Wyoming,false, ,false, ,false, ,-83.160949,42.433372,430,-9257434.49656539,5226119.15802762
4115,Wyoming & Cambridge,Southbound,54,Wyoming,false, ,false, ,false, ,-83.1611198,42.4327959,431,-9257453.50993442,5226032.26719282
4116,Wyoming & St Martins,Southbound,54,Wyoming,false, ,false, ,false, ,-83.161253,42.4365999,432,-9257468.33769059,5226606.02391522
4119,Wyoming & Pembroke,Northbound,54,Wyoming,false, ,false, ,false, ,-83.161114,42.4387311,433,-9257452.86428137,5226927.4876988
4121,Wyoming & Chippewa,Northbound,54,Wyoming,false, ,false, ,false, ,-83.161236,42.4411809,434,-9257466.44525925,5227297.02165349
4122,Wyoming & Chippewa,Southbound,54,Wyoming,false, ,false, ,false, ,-83.1614192,42.4407331,435,-9257486.83898996,5227229.47330322
4123,Wyoming & W Outer Dr,Southbound,54,Wyoming,false, ,false, ,false, ,-83.1611691,42.4346159,436,-9257458.99798532,5226306.77316174
4124,Wyoming & Norfolk,Southbound,54,Wyoming,false, ,false, ,false, ,-83.1615071,42.4431051,437,-9257496.6239732,5227587.2829218
4125,Wyoming & Norfolk,Northbound,54,Wyoming,false, ,false, ,false, ,-83.161326,42.4435231,438,-9257476.46401342,5227650.33846593
4126,Warren & Manor,Westbound,8,Warren,false, ,true,Third-Party,false, ,-83.166373,42.3443379,439,-9258038.29348345,5212699.96682689
4129,Chicago & Meyers,Westbound,15,Chicago/Davison,false, ,false, ,false, ,-83.1682711,42.3660669,440,-9258249.58900893,5215973.19970413
4130,Chicago & Manor,Eastbound,15,Chicago/Davison,false, ,false, ,false, ,-83.1661389,42.365962,441,-9258012.23359066,5215957.39496336
4131,Chicago & Pinehurst,Westbound,15,Chicago/Davison,false, ,false, ,false, ,-83.1657531,42.3661081,442,-9257969.28653111,5215979.40710239
4132,Curtis & Monte Vista,Westbound,16,Dexter,false, ,false, ,false, ,-83.1685699,42.424105,443,-9258282.85127278,5224721.5507621
4133,Curtis & Pinehurst,Eastbound,16,Dexter,false, ,false, ,false, ,-83.1668559,42.423995,444,-9258092.04966556,5224704.96229752
4134,Curtis & Mendota,Westbound,16,Dexter,false, ,false, ,false, ,-83.1665789,42.4241471,445,-9258061.21416661,5224727.8996276
4138,Warren & Kingsley,Eastbound,8,Warren,false, ,true,Third-Party,false, ,-83.161054,42.344329,446,-9257446.18511193,5212698.62637241
4139,Warren & Wyoming,Eastbound,8,Warren,false, ,false, ,false, ,-83.1575154,42.3443734,447,-9257052.2699618,5212705.31358539
4140,Warren & Wyoming,Westbound,8,Warren,false, ,false, ,false, ,-83.1569532,42.3446699,448,-9256989.68614408,5212749.97043275
4143,Warren & Lonyo,Eastbound,8,Warren,false, ,false, ,false, ,-83.1553651,42.344438,449,-9256812.89966075,5212715.04318747
4145,Joy & Mendota,Westbound,27,Joy,false, ,false, ,false, ,-83.1644441,42.3588861,450,-9257823.56931766,5214891.36660764
4146,Joy & Mendota,Eastbound,27,Joy,false, ,false, ,false, ,-83.1639031,42.3587091,451,-9257763.34547315,5214864.70199553
4147,Joy & Oakman,Westbound,27,Joy,false, ,true,City of Detroit,false, ,-83.1611701,42.3589949,452,-9257459.10930481,5214907.75709575
4148,Joy & Oakman,Eastbound,27,Joy,false, ,false, ,false, ,-83.1601528,42.358787,453,-9257345.86398682,5214876.43742856
4149,Chicago & Mendota,Eastbound,15,Chicago/Davison,false, ,false, ,false, ,-83.1638948,42.3659981,454,-9257762.42152137,5215962.83396078
4150,Chicago & Griggs,Eastbound,15,Chicago/Davison,false, ,false, ,false, ,-83.1616259,42.3660369,455,-9257509.84872871,5215968.67975651
4151,Chicago & Griggs,Westbound,15,Chicago/Davison,false, ,false, ,false, ,-83.161895,42.3662041,456,-9257539.80480368,5215993.87095878
4153,Joy & Indiana,Eastbound,27,Joy,false, ,false, ,false, ,-83.1553159,42.3588961,457,-9256807.42274181,5214892.87308514
4154,Joy & Indiana,Westbound,27,Joy,false, ,false, ,false, ,-83.1558898,42.3591031,458,-9256871.30899757,5214924.05722329
4155,Joy & Ohio,Westbound,27,Joy,false, ,false, ,false, ,-83.153794,42.359118,459,-9256638.00560877,5214926.3018826
4156,Joy & Ohio,Eastbound,27,Joy,false, ,false, ,false, ,-83.1527471,42.3589721,460,-9256521.46523385,5214904.322322
4158,Joy & Cloverlawn,Eastbound,27,Joy,false, ,false, ,false, ,-83.1507261,42.3590199,461,-9256296.48854296,5214911.52329648
4159,Joy & Roselawn,Westbound,27,Joy,false, ,false, ,false, ,-83.1499179,42.3591959,462,-9256206.5201305,5214938.037392
4160,Joy & Greenlawn,Eastbound,27,Joy,false, ,false, ,false, ,-83.148481,42.3590639,463,-9256046.56515418,5214918.1518134
4161,Chicago & Wisconsin,Eastbound,15,Chicago/Davison,false, ,false, ,false, ,-83.155409,42.3661711,464,-9256817.7865864,5215988.89900565
4162,Chicago & Wisconsin,Westbound,15,Chicago/Davison,false, ,false, ,false, ,-83.1563349,42.3663231,465,-9256920.85730292,5216011.80014477
4163,Chicago & Ohio,Westbound,15,Chicago/Davison,false, ,false, ,false, ,-83.1542471,42.3663689,466,-9256688.44447005,5216018.70063045
4164,Oakman & Chicago,Eastbound,15,Chicago/Davison,false, ,false, ,false, ,-83.1524459,42.366561,467,-9256487.93580323,5216047.64355204
4165,Oakman & Northlawn,Southbound,15,Chicago/Davison,false, ,false, ,false, ,-83.152486,42.367012,468,-9256492.39971481,5216115.59422592
4168,Warren & McDonald,Eastbound,8,Warren,false, ,false, ,false, ,-83.1470872,42.3446419,469,-9255891.40804791,5212745.75325097
4169,McNichols & Birwood,Eastbound,32,McNichols,false, ,false, ,false, ,-83.1642061,42.416741,470,-9257797.07527886,5223611.09269934
4170,McNichols & Geneva,Eastbound,"23, 32","Hamilton, McNichols",false, ,false, ,false, ,-83.105981,42.4176761,471,-9251315.48679547,5223752.09434293
4171,McNichols & Ilene,Eastbound,32,McNichols,false, ,false, ,false, ,-83.16218,42.4167851,472,-9257571.53085856,5223617.74239275
4172,McNichols & Wyoming,Eastbound,32,McNichols,false, ,false, ,false, ,-83.1608449,42.4168401,473,-9257422.9082064,5223626.03566773
4175,McNichols & Wyoming,Westbound,32,McNichols,false, ,true,City of Detroit,false, ,-83.1606698,42.4170241,474,-9257403.41616356,5223653.78049507
4176,McNichols & Wisconsin,Eastbound,32,McNichols,false, ,true,City of Detroit,true,DDOT,-83.1570418,42.416915,475,-9256999.54905097,5223637.32961207
4178,McNichols & Cherrylawn,Eastbound,32,McNichols,false, ,true,City of Detroit,false, ,-83.1539651,42.4169919,476,-9256657.05237364,5223648.92514441
4180,McNichols & Greenlawn,Eastbound,32,McNichols,false, ,false, ,false, ,-83.1505569,42.4170461,477,-9256277.65328512,5223657.09781683
4181,McNichols & Greenlawn,Westbound,32,McNichols,true,City of Detroit,false, ,false, ,-83.1516691,42.417165,478,-9256401.46282278,5223675.02645322
4182,Curtis & Birwood,Eastbound,16,Dexter,false, ,false, ,false, ,-83.1646901,42.4240489,479,-9257850.9539124,5224713.09064153
4183,Curtis & Griggs,Westbound,16,Dexter,false, ,false, ,false, ,-83.1642229,42.4241889,480,-9257798.9454463,5224734.20325601
4184,Curtis & Ilene,Eastbound,16,Dexter,false, ,false, ,false, ,-83.1624579,42.424089,481,-9257602.46654505,5224719.13789272
4185,Wyoming & Curtis,Northbound,54,Wyoming,false, ,false, ,false, ,-83.1606289,42.4245981,482,-9257398.86319639,5224795.91268233
4188,Wyoming & Curtis,Southbound,54,Wyoming,false, ,true,City of Detroit,false, ,-83.1608022,42.423896,483,-9257418.15486415,5224690.03270429
4189,Curtis & Kentucky,Westbound,16,Dexter,false, ,false, ,false, ,-83.1599131,42.4242639,484,-9257319.18070488,5224745.51360459
4190,Curtis & Indiana,Eastbound,16,Dexter,false, ,false, ,false, ,-83.1583161,42.4241361,485,-9257141.40347808,5224726.24077872
4191,Curtis & Wisconsin,Westbound,16,Dexter,false, ,false, ,false, ,-83.1577249,42.4242879,486,-9257075.59139513,5224749.13291899
4192,Curtis & Ohio,Eastbound,16,Dexter,false, ,false, ,false, ,-83.1561401,42.4241791,487,-9256899.17226612,5224732.72537146
4193,Curtis & Cherrylawn,Westbound,16,Dexter,false, ,false, ,false, ,-83.1555389,42.4242929,488,-9256832.24698825,5224749.886943
4194,Curtis & Northlawn,Eastbound,16,Dexter,false, ,false, ,false, ,-83.1537858,42.4241921,489,-9256637.09278894,5224734.68583061
4195,Curtis & Roselawn,Westbound,16,Dexter,false, ,false, ,false, ,-83.1525529,42.4243529,490,-9256499.84698874,5224758.93523579
4196,Curtis & Greenlawn,Eastbound,16,Dexter,false, ,false, ,false, ,-83.1513201,42.4242209,491,-9256362.61232049,5224739.02900308
4197,Spinoza & Sawyer,Southbound,47,Tireman,false, ,false, ,false, ,-83.2447971,42.346965,492,-9266768.42436138,5213095.65017283
4198,Tireman & Trinity,Eastbound,47,Tireman,false, ,false, ,false, ,-83.2469511,42.3500569,493,-9267008.20654454,5213561.36102843
4199,Tireman & Trinity,Westbound,47,Tireman,false, ,false, ,false, ,-83.246924,42.3501859,494,-9267005.18978635,5213580.79187664
4200,Tireman & Pierson,Eastbound,47,Tireman,false, ,false, ,false, ,-83.2444481,42.3501041,495,-9266729.57385909,5213568.47060548
4201,Tireman & Pierson,Westbound,47,Tireman,false, ,false, ,false, ,-83.244517,42.350242,496,-9266737.24377201,5213589.24204865
4204,Tireman & Stout,Eastbound,47,Tireman,false, ,false, ,false, ,-83.2389308,42.3502341,497,-9266115.39083254,5213588.05209527
4205,Tireman & Stout,Westbound,47,Tireman,false, ,false, ,false, ,-83.2396599,42.350344,498,-9266196.55387327,5213604.60601707
4209,Tireman & Minock,Eastbound,47,Tireman,false, ,false, ,false, ,-83.2316001,42.3503361,499,-9265299.34104138,5213603.41606177
4211,Tireman & Westwood,Westbound,47,Tireman,false, ,false, ,false, ,-83.231368,42.3504419,500,-9265273.50378756,5213619.35243767
4212,W Grand Bl & Hubbard,Southbound,"27, 47","Joy, Tireman",false, ,false, ,false, ,-83.099109,42.333349,501,-9250550.49925474,5211045.04164413
4213,W Grand Bl & Magnolia,Southbound,"27, 47","Joy, Tireman",false, ,false, ,false, ,-83.1010869,42.3351141,502,-9250770.67807558,5211310.84570202
4214,W Grand Bl & Magnolia,Northbound,"27, 47","Joy, Tireman",false, ,false, ,false, ,-83.101183,42.3356849,503,-9250781.37587864,5211396.80331003
4217,Tireman & Warwick,Eastbound,47,Tireman,false, ,false, ,false, ,-83.2268429,42.3503979,504,-9264769.77195978,5213612.72483007
4218,Tireman & Artesian,Westbound,47,Tireman,false, ,false, ,false, ,-83.2261199,42.3505411,505,-9264689.28796793,5213634.29469729
4221,Tireman & Greenview,Eastbound,47,Tireman,false, ,false, ,false, ,-83.2219369,42.3504811,506,-9264223.63853795,5213625.25703745
4222,Tireman & Faust,Westbound,47,Tireman,false, ,false, ,false, ,-83.2212739,42.3506199,507,-9264149.83371555,5213646.16417033
4225,Tireman & Ashton,Eastbound,47,Tireman,false, ,false, ,false, ,-83.2171019,42.3505461,508,-9263685.40879996,5213635.047836
4227,Southfield & Tireman,Southbound,46,Southfield,false, ,false, ,false, ,-83.2168139,42.3503141,509,-9263653.34878661,5213600.10226296
4232,Tireman & Mettetal,Westbound,47,Tireman,false, ,false, ,false, ,-83.205391,42.350818,510,-9262381.75737523,5213676.00360926
4235,Tireman & Rutherford,Eastbound,47,Tireman,false, ,false, ,false, ,-83.2010321,42.3507621,511,-9261896.52684681,5213667.58348547
4236,Tireman & Forrer,Westbound,47,Tireman,false, ,false, ,false, ,-83.2005539,42.3508699,512,-9261843.29386631,5213683.82122643
4239,Joy & Grandmont,Westbound,27,Joy,false, ,false, ,false, ,-83.2088939,42.358103,513,-9262771.69841953,5214773.39509892
4240,Joy & Grandmont,Eastbound,27,Joy,false, ,false, ,false, ,-83.2084419,42.357835,514,-9262721.38200969,5214733.02209431
4244,Tireman & Barrie,Eastbound,47,Tireman,false, ,false, ,false, ,-83.193109,42.3508969,515,-9261014.53138931,5213687.88819745
4245,Tireman & Coyle,Westbound,47,Tireman,false, ,false, ,false, ,-83.1925911,42.3510291,516,-9260956.87902502,5213707.80131781
4247,Tireman & Orchard,Eastbound,47,Tireman,false, ,false, ,false, ,-83.187723,42.3509989,517,-9260414.96461189,5213703.25232596
4248,Tireman & Marlowe,Westbound,47,Tireman,false, ,false, ,false, ,-83.1884069,42.351129,518,-9260491.09601165,5213722.84915742
4250,Tireman & Strathmoor,Westbound,47,Tireman,false, ,false, ,false, ,-83.1860021,42.3511421,519,-9260223.39490019,5213724.82239943
4252,Tireman & Anthony,Eastbound,47,Tireman,false, ,false, ,false, ,-83.1842339,42.3510639,520,-9260026.55977657,5213713.04320517
4254,Tireman & Maple,Eastbound,47,Tireman,false, ,false, ,false, ,-83.179747,42.351148,521,-9259527.08035333,5213725.71111161
4255,Tireman & Decatur,Westbound,47,Tireman,false, ,false, ,false, ,-83.1799648,42.3513069,522,-9259551.32573842,5213749.64612022
4257,Schaefer & Tireman,Southbound,41,Schaefer,false, ,false, ,false, ,-83.1772589,42.3510099,523,-9259250.10632828,5213704.90924326
4258,Schaefer & Tireman,Northbound,41,Schaefer,false, ,false, ,false, ,-83.1770649,42.351444,524,-9259228.51034707,5213770.29745695
4260,Tireman & Bingham,Eastbound,47,Tireman,false, ,false, ,false, ,-83.1746711,42.3512861,525,-9258962.03375001,5213746.51302565
4261,Tireman & Cheyenne,Westbound,47,Tireman,false, ,false, ,false, ,-83.1740519,42.3514321,526,-9258893.10472131,5213768.50496131
4262,Tireman & Reuter,Eastbound,47,Tireman,false, ,false, ,false, ,-83.1724271,42.351342,527,-9258712.23281267,5213754.93321964
4264,Tireman & Sorrento,Westbound,47,Tireman,false, ,false, ,false, ,-83.171725,42.3514741,528,-9258634.07539818,5213774.83141802
4266,Tireman & Appoline,Westbound,47,Tireman,false, ,false, ,false, ,-83.1682331,42.3515459,529,-9258245.35886828,5213785.64665618
4267,Tireman & Littlefield,Eastbound,47,Tireman,false, ,false, ,false, ,-83.1668609,42.3514661,530,-9258092.60626301,5213773.62637832
4269,Tireman & Pinehurst,Westbound,47,Tireman,false, ,false, ,false, ,-83.1652419,42.3516551,531,-9257912.38000742,5213802.09548219
4270,Tireman & Theisen,Eastbound,47,Tireman,false, ,false, ,false, ,-83.1637371,42.3515579,532,-9257744.86643767,5213787.45421808
4271,Tireman & Middlepoint,Westbound,47,Tireman,false, ,false, ,false, ,-83.1623409,42.3517221,533,-9257589.44216463,5213812.18772475
4272,Tireman & Morrow Cir,Eastbound,47,Tireman,false, ,false, ,false, ,-83.160653,42.351607,534,-9257401.54599612,5213794.85016245
4275,Tireman & Indiana,Eastbound,47,Tireman,false, ,false, ,false, ,-83.1545919,42.3517181,535,-9256726.82743047,5213811.5852025
4276,Tireman & Wisconsin,Westbound,47,Tireman,false, ,false, ,false, ,-83.1542579,42.351847,536,-9256689.64672055,5213831.00150117
4277,Tireman & Ohio,Eastbound,47,Tireman,false, ,false, ,false, ,-83.1525438,42.351764,537,-9256498.83398138,5213818.49914758
4278,Tireman & Northlawn,Westbound,47,Tireman,false, ,false, ,false, ,-83.1518841,42.3518999,538,-9256425.3965133,5213838.96987731
4279,Tireman & Roselawn,Eastbound,47,Tireman,false, ,false, ,false, ,-83.1489359,42.3518301,539,-9256097.20439054,5213828.45583988
4281,Tireman & Alpine,Westbound,47,Tireman,false, ,false, ,false, ,-83.147508,42.352005,540,-9255938.25128964,5213854.80120784
4284,Tireman & American,Eastbound,47,Tireman,false, ,false, ,false, ,-83.143919,42.3519129,541,-9255538.72563718,5213840.92808041
4285,Tireman & Prairie,Westbound,47,Tireman,false, ,false, ,false, ,-83.1432198,42.3520939,542,-9255460.89104922,5213868.19233492
4286,Tireman & Burnette,Eastbound,47,Tireman,false, ,false, ,false, ,-83.1413479,42.3519669,543,-9255252.5120944,5213849.06215917
4287,Tireman & Burnette,Westbound,47,Tireman,false, ,false, ,false, ,-83.1410519,42.3521191,544,-9255219.56152513,5213871.98824841
4288,Tireman & Rangoon,Eastbound,47,Tireman,false, ,false, ,false, ,-83.1378919,42.3520369,545,-9254867.79193422,5213859.60634575
4289,Tireman & Rangoon,Westbound,47,Tireman,false, ,false, ,false, ,-83.138501,42.352184,546,-9254935.59663607,5213881.76423895
4291,Livernois & Tireman,Southbound,30,Livernois,false, ,false, ,false, ,-83.1357909,42.3518761,547,-9254633.90968407,5213835.38486037
4293,Livernois & Tireman,Northbound,30,Livernois,false, ,false, ,false, ,-83.1356508,42.3523381,548,-9254618.31382341,5213904.97660825
4296,Epworth & Tireman,Northbound,11,Clairmount,false, ,false, ,false, ,-83.1300081,42.3524669,549,-9253990.17133271,5213924.37803521
4297,Tireman & Epworth,Eastbound,47,Tireman,false, ,false, ,false, ,-83.1292529,42.3518681,550,-9253906.10285326,5213834.17981296
4298,Epworth & Tireman,Southbound,11,Clairmount,false, ,false, ,false, ,-83.1297102,42.35174,551,-9253957.0092564,5213814.88401227
4299,Tireman & Epworth,Westbound,47,Tireman,false, ,false, ,false, ,-83.1302789,42.3520349,552,-9254020.31665081,5213859.30508311
4302,Tireman & Northfield,Eastbound,47,Tireman,false, ,false, ,false, ,-83.1252421,42.3517801,553,-9253459.62263959,5213820.92430162
4303,Tireman & Larchmont,Westbound,47,Tireman,false, ,false, ,false, ,-83.124716,42.3519239,554,-9253401.05745548,5213842.58502181
4304,Tireman & Begole,Eastbound,47,Tireman,false, ,false, ,false, ,-83.1226869,42.351762,555,-9253175.17907671,5213818.19788625
4306,Tireman & Ironwood,Westbound,47,Tireman,false, ,false, ,false, ,-83.121919,42.3521971,556,-9253089.69683973,5213883.73751408
4311,Tireman & Boxwood,Eastbound,"27, 47","Joy, Tireman",false, ,false, ,false, ,-83.117075,42.3538429,557,-9252550.46522633,5214131.65041941
4312,Tireman & Firwood,Westbound,"27, 47","Joy, Tireman",false, ,false, ,false, ,-83.1163142,42.354289,558,-9252465.77335773,5214198.84922097
4313,W Grand Bl & Milford,Southbound,"27, 47","Joy, Tireman",false, ,false, ,false, ,-83.11071,42.3497839,559,-9251841.91666743,5213520.24006257
4314,W Grand Bl & Milford,Northbound,"27, 47","Joy, Tireman",false, ,false, ,false, ,-83.1101191,42.3502621,560,-9251776.13798032,5213592.26965222
4315,W Grand Bl & Moore,Southbound,"27, 47","Joy, Tireman",false, ,false, ,false, ,-83.1107808,42.3516701,561,-9251849.79808738,5213804.35493854
4316,W Grand Bl & Moore,Northbound,"27, 47","Joy, Tireman",false, ,false, ,false, ,-83.1101909,42.352229,562,-9251784.13071976,5213888.54266667
4317,W Grand Bl & Hancock,Northbound,"27, 47","Joy, Tireman",false, ,false, ,false, ,-83.1056658,42.3421699,563,-9251280.39889197,5212373.44374808
4318,W Grand Bl & Hancock,Southbound,"27, 47","Joy, Tireman",false, ,false, ,false, ,-83.1058008,42.3416019,564,-9251295.42702323,5212287.89897252
4319,W Grand Bl & Nall,Southbound,"27, 47","Joy, Tireman",false, ,false, ,false, ,-83.1024891,42.3370019,565,-9250926.77026557,5211595.13524573
4320,W Grand Bl & Nall,Northbound,"27, 47","Joy, Tireman",false, ,false, ,false, ,-83.102573,42.3375501,566,-9250936.10997085,5211677.69195003
4323,Tireman & John E Hunter,Eastbound,"27, 47","Joy, Tireman",false, ,false, ,false, ,-83.1144858,42.3548131,567,-9252262.23680077,5214277.79825424
4324,Tireman & Hartford,Eastbound,"27, 47","Joy, Tireman",false, ,false, ,false, ,-83.1132739,42.3552619,568,-9252127.32870987,5214345.40481861
4325,Tireman & Scotten,Westbound,"27, 47","Joy, Tireman",false, ,false, ,false, ,-83.112866,42.3555809,569,-9252081.92148958,5214393.45879762
4326,W Grand Bl & Scovel,Northbound,"27, 47","Joy, Tireman",false, ,false, ,false, ,-83.110259,42.3541239,570,-9251791.71157708,5214173.97913144
4327,W Grand Bl & Scovel,Southbound,"27, 47","Joy, Tireman",false, ,false, ,false, ,-83.1108489,42.3537289,571,-9251857.3789447,5214114.47797099
4328,W Grand Bl & Vinewood,Northbound,"27, 47","Joy, Tireman",false, ,false, ,false, ,-83.0988259,42.3336299,572,-9250518.98470689,5211087.34150184
4329,W Grand Bl & Martin Luther King,Southbound,27,Joy,false, ,false, ,false, ,-83.0966881,42.333531,573,-9250281.00589947,5211072.44843676
4333,Martin Luther King & 25th,Westbound,47,Tireman,false, ,false, ,false, ,-83.0955341,42.334637,574,-9250152.5432071,5211238.99911282
4336,Martin Luther King & Tillman,Eastbound,47,Tireman,false, ,false, ,false, ,-83.0917219,42.335672,575,-9249728.1710443,5211394.86067152
4344,Martin Luther King & Lawton,Westbound,47,Tireman,false, ,false, ,false, ,-83.0890019,42.3369269,576,-9249425.38202934,5211583.84060483
4345,Martin Luther King & I-96 Service Dr,Westbound,47,Tireman,false, ,false, ,false, ,-83.0916529,42.3360431,577,-9249720.48999943,5211450.74557108
4346,Martin Luther King @ 2685,Eastbound,47,Tireman,false, ,false, ,false, ,-83.0869521,42.3372029,578,-9249197.19933711,5211625.40494977
4347,Martin Luther King & 18th,Westbound,47,Tireman,false, ,false, ,false, ,-83.085878,42.3378481,579,-9249077.63107205,5211722.56984753
4348,Martin Luther King & 17th,Eastbound,47,Tireman,false, ,false, ,false, ,-83.0839111,42.338032,580,-9248858.67676561,5211750.2647367
4352,Martin Luther King & 14th,Eastbound,47,Tireman,false, ,false, ,false, ,-83.080535,42.339212,581,-9248482.85103274,5211927.97177112
4353,14th & Martin Luther King,Southbound,18,Fenkell,false, ,false, ,false, ,-83.0809008,42.3388871,582,-9248523.57170247,5211879.04176429
4354,Martin Luther King & 14th,Westbound,47,Tireman,false, ,false, ,false, ,-83.0813601,42.3393111,583,-9248574.7007446,5211942.89630182
4355,Martin Luther King & Rosa Parks,Eastbound,47,Tireman,false, ,true,City of Detroit,false, ,-83.0767351,42.340394,584,-9248059.84809968,5212105.98334722
4356,Rosa Parks & Magnolia,Northbound,18,Fenkell,false, ,false, ,false, ,-83.077916,42.3419879,585,-9248191.30528636,5212346.03319008
4357,Martin Luther King & Rosa Parks,Westbound,47,Tireman,false, ,false, ,false, ,-83.07746,42.340526,586,-9248140.54359855,5212125.86302029
4358,Rosa Parks & Martin Luther King,Northbound,18,Fenkell,false, ,false, ,false, ,-83.077236,42.3407721,587,-9248115.60803262,5212162.9266737
4361,Martin Luther King & Trumbull,Westbound,47,Tireman,false, ,false, ,false, ,-83.073226,42.341821,588,-9247669.21687453,5212320.8968745
4363,Martin Luther King & Third,Eastbound,47,Tireman,false, ,false, ,false, ,-83.0647422,42.3442351,589,-9246724.80457854,5212684.4838362
4364,Trumbull & Martin Luther King,Southbound,29,Linwood,false, ,false, ,false, ,-83.0727922,42.341459,590,-9247620.92647943,5212266.377354
4368,Grand River & Gibson,Westbound,3,Grand River,false, ,false, ,false, ,-83.0706909,42.341317,591,-9247387.01083343,5212244.99132946
4370,Grand River & Ash,Southbound,3,Grand River,false, ,true,City of Detroit,false, ,-83.0696619,42.340651,592,-9247272.4630774,5212144.68850674
4371,Grand River & Brooklyn,Southbound,3,Grand River,false, ,false, ,false, ,-83.0680921,42.3400169,593,-9247097.71374075,5212049.19096567
4374,Grand River & Fifth,Westbound,3,Grand River,false, ,false, ,false, ,-83.0647821,42.3389141,594,-9246729.24622623,5211883.10796022
4375,Grand River & Fifth,Eastbound,3,Grand River,false, ,false, ,false, ,-83.064666,42.3386411,595,-9246716.32203334,5211841.99428187
4377,Gratiot & Mohican,Westbound,6,Gratiot,false, ,false, ,false, ,-82.9702151,42.446752,596,-9236202.09594038,5228137.43409391
4379,Grand River & Third,Eastbound,3,Grand River,false, ,false, ,false, ,-83.0603269,42.336854,597,-9246233.29563084,5211572.86222679
4380,Jefferson & Van Dyke,Eastbound,9,Jefferson,false, ,true,City of Detroit,false, ,-82.994507,42.351444,598,-9238906.25787878,5213770.29745695
4386,Palmer & Second,Westbound,23,Hamilton,false, ,false, ,false, ,-83.0727609,42.360486,599,-9247617.44217937,5215132.39099245
4387,Second & Palmer,Northbound,"23, 42","Hamilton, Mid-City Loop",false, ,false, ,false, ,-83.0721381,42.361002,600,-9247548.1124005,5215210.12752384
4388,Anthony Wayne Dr & Kirby,Northbound,"23, 42","Hamilton, Mid-City Loop",false, ,false, ,true,DDOT,-83.0730049,42.3581371,601,-9247644.60413512,5214778.53212417
4393,Fort & McKinstry,Eastbound,19,Fort,false, ,false, ,false, ,-83.0908049,42.311895,602,-9249626.09107124,5207814.90851382
4397,Warren & Dacosta,Westbound,8,Warren,false, ,false, ,false, ,-83.257594,42.3418559,603,-9268192.96875311,5212326.1530548
4398,Warren & Dacosta,Eastbound,8,Warren,false, ,false, ,false, ,-83.2570021,42.341672,604,-9268127.07874651,5212298.45648136
4399,Warren & Rockdale,Westbound,8,Warren,false, ,false, ,false, ,-83.2551329,42.3419411,605,-9267919.00035432,5212338.9847737
4401,Warren & W Outer Dr,Westbound,8,Warren,false, ,false, ,false, ,-83.2527329,42.3420781,606,-9267651.83357641,5212359.61797319
4402,Warren & W Outer Dr,Eastbound,8,Warren,false, ,false, ,false, ,-83.251441,42.3420228,607,-9267508.01992626,5212351.28938434
4409,Joy & Trinity,Westbound,27,Joy,false, ,false, ,false, ,-83.2473681,42.3574639,608,-9267054.62677221,5214677.11781884
4410,Joy & Trinity,Eastbound,27,Joy,false, ,false, ,false, ,-83.246621,42.357257,609,-9266971.45998063,5214645.94955853
4412,Warren & Asbury Park,Eastbound,8,Warren,false, ,false, ,false, ,-83.2058439,42.3434471,610,-9262432.17397261,5212565.80183012
4413,Chicago & Asbury Park,Eastbound,15,Chicago/Davison,false, ,false, ,false, ,-83.206081,42.365188,611,-9262458.56782388,5215840.78119989
4414,Joy & Mettetal,Westbound,27,Joy,false, ,false, ,false, ,-83.205701,42.3581209,612,-9262416.26641737,5214776.09166022
4415,Joy & Mettetal,Eastbound,27,Joy,false, ,false, ,false, ,-83.2050629,42.357911,613,-9262345.2334503,5214744.47113783
4416,Joy & Mansfield,Westbound,27,Joy,false, ,false, ,false, ,-83.2035649,42.3581399,614,-9262178.47685309,5214778.95393282
4417,Joy & Mansfield,Eastbound,27,Joy,false, ,false, ,false, ,-83.2030591,42.3579361,615,-9262122.17145465,5214748.25233814
4418,Warren & Central,Eastbound,8,Warren,false, ,false, ,false, ,-83.1447139,42.3446839,616,-9255627.21350041,5212752.07902434
4419,Warren & Central,Westbound,8,Warren,false, ,false, ,false, ,-83.1461459,42.344856,617,-9255786.62301123,5212777.99967791
4421,Warren & Prairie,Eastbound,8,Warren,false, ,false, ,false, ,-83.1420491,42.3447389,618,-9255330.56932135,5212760.36278157
4422,Warren & Prairie,Westbound,8,Warren,false, ,false, ,false, ,-83.1429851,42.344929,619,-9255434.76436473,5212788.99451463
4423,Beechwood & Pacific,Southbound,27,Joy,false, ,false, ,false, ,-83.1215441,42.3560791,620,-9253047.96316263,5214468.5078509
4424,Beechwood & Seebaldt,Southbound,27,Joy,false, ,false, ,false, ,-83.1204398,42.35451,621,-9252925.03304895,5214232.13999425
4425,Beechwood & Allendale,Northbound,27,Joy,false, ,false, ,false, ,-83.121133,42.3557271,622,-9253002.19971997,5214415.48236418
4427,Warren & Scotten,Eastbound,8,Warren,false, ,true,City of Detroit,false, ,-83.1105889,42.3446401,623,-9251828.43587709,5212745.48214649
4428,Warren & Scotten,Westbound,8,Warren,false, ,true,City of Detroit,false, ,-83.1116,42.3448591,624,-9251940.99101423,5212778.46658168
4429,Warren & Bangor,Westbound,8,Warren,false, ,false, ,false, ,-83.109904,42.344865,625,-9251752.19315785,5212779.35520503
4430,W Grand Bl & Warren,Southbound,"27, 47","Joy, Tireman",true,DDOT,false, ,false, ,-83.1079009,42.3443589,626,-9251529.20908584,5212703.12969775
4431,Warren & E Grand Bl,Westbound,8,Warren,false, ,true,City of Detroit,false, ,-83.019373,42.373543,627,-9241674.32833684,5217099.65301915
4432,Warren & W Grand Bl,Eastbound,8,Warren,false, ,false, ,false, ,-83.108367,42.3446891,628,-9251581.0951005,5212752.86221562
4433,Warren & McKinley,Westbound,8,Warren,false, ,false, ,false, ,-83.1048841,42.3449731,629,-9251193.38044602,5212795.63660711
4434,Warren & McKinley,Eastbound,8,Warren,false, ,false, ,false, ,-83.1036391,42.3447589,630,-9251054.78767998,5212763.37505872
4439,Grand River & Lahser,Westbound,3,Grand River,false, ,false, ,false,DDOT,-83.2581381,42.4167909,631,-9268253.53768805,5223618.61695595
4443,Grand River & Lahser,Eastbound,3,Grand River,false, ,false, ,false, ,-83.2570001,42.416072,632,-9268126.85610753,5223510.2169715
4448,Lahser & Willmarth,Southbound,7,Seven Mile,false, ,false, ,false, ,-83.257949,42.4185501,633,-9268232.48717234,5223883.88475482
4449,Lahser & Santa Clara,Northbound,7,Seven Mile,false, ,false, ,false, ,-83.2577909,42.4190049,634,-9268214.88756085,5223952.46474841
4452,Lahser & Curtis,Southbound,7,Seven Mile,false, ,false, ,false, ,-83.2582029,42.4216891,635,-9268260.75119105,5224357.22953853
4454,Lahser & Curtis,Northbound,7,Seven Mile,false, ,false, ,false, ,-83.2580752,42.4226031,636,-9268246.53569208,5224495.06041314
4455,Lahser & Pickford,Southbound,7,Seven Mile,false, ,false, ,false, ,-83.258224,42.423379,637,-9268263.10003231,5224612.06743377
4456,Lahser & Pickford,Northbound,7,Seven Mile,false, ,false, ,false, ,-83.2581091,42.4239671,638,-9268250.30942282,5224700.75486432
4461,Lahser & Clarita,Northbound,7,Seven Mile,false, ,false, ,false, ,-83.2581879,42.4265769,639,-9268259.08139869,5225094.33139814
4462,Lahser & Clarita,Southbound,7,Seven Mile,false, ,false, ,false, ,-83.2583501,42.4262431,640,-9268277.1374201,5225043.99105336
4463,7 Mile & Lahser,Westbound,17,Eight Mile,false, ,true,City of Detroit,false, ,-83.25879,42.429239,641,-9268326.1068641,5225495.81202786
4464,7 Mile & Lahser,Eastbound,7,Seven Mile,false, ,true,City of Detroit,false, ,-83.2578339,42.429009,642,-9268219.67429895,5225461.12424897
4465,Lahser & 7 Mile,Southbound,7,Seven Mile,false, ,false, ,false, ,-83.2583819,42.4287501,643,-9268280.6773799,5225422.07802751
4466,Lahser & 7 Mile,Northbound,17,Eight Mile,false, ,false, ,false, ,-83.25815,42.4296071,644,-9268254.86238999,5225551.3278206
4467,7 Mile & Burgess,Westbound,7,Seven Mile,false, ,false, ,false, ,-83.256614,42.4292809,645,-9268083.87565213,5225502.13124999
4468,7 Mile & Chapel,Eastbound,7,Seven Mile,false, ,false, ,false, ,-83.2545941,42.4291069,646,-9267859.02141268,5225475.8891619
4469,7 Mile & Bentler,Westbound,7,Seven Mile,false, ,false, ,false, ,-83.2538479,42.4293419,647,-9267775.95480865,5225511.33107972
4470,7 Mile & Westbrook,Eastbound,7,Seven Mile,false, ,false, ,false, ,-83.2517311,42.4291779,648,-9267540.31371054,5225486.59713158
4471,7 Mile & Blackstone,Westbound,7,Seven Mile,false, ,false, ,false, ,-83.2514119,42.4293771,649,-9267504.78052908,5225516.639838
4472,7 Mile & Trinity,Eastbound,7,Seven Mile,false, ,false, ,false, ,-83.2490182,42.429229,650,-9267238.31506396,5225494.30386092
4473,7 Mile & Burt,Westbound,7,Seven Mile,false, ,true,City of Detroit,false, ,-83.2491112,42.4294541,651,-9267248.66777661,5225528.25275713
4474,7 Mile & Pelkey,Eastbound,7,Seven Mile,false, ,false, ,false, ,-82.985972,42.4348041,652,-9237956.14602486,5226335.15934364
4475,7 Mile & Pierson,Eastbound,7,Seven Mile,false, ,false, ,false, ,-83.2472329,42.429272,653,-9267039.57637705,5225500.78898049
4477,7 Mile & Patton,Eastbound,7,Seven Mile,false, ,false, ,false, ,-83.2451081,42.4293309,654,-9266803.04472301,5225509.67209337
4478,7 Mile & Fielding,Westbound,7,Seven Mile,false, ,true,City of Detroit,false, ,-83.2446941,42.4295469,655,-9266756.95845382,5225542.2486059
4479,7 Mile & Stout,Eastbound,7,Seven Mile,false, ,false, ,false, ,-83.24273,42.4293851,656,-9266538.31584196,5225517.84637439
4481,7 Mile & Heyden,Westbound,7,Seven Mile,false, ,true,City of Detroit,false, ,-83.2408879,42.429641,657,-9266333.25420797,5225556.44053836
4482,7 Mile & Heyden,Eastbound,7,Seven Mile,false, ,false, ,false, ,-83.2403158,42.4294221,658,-9266269.56832729,5225523.42660719
4484,7 Mile & Westmoreland,Eastbound,7,Seven Mile,false, ,false, ,false, ,-83.236392,42.42955,659,-9265832.77290931,5225542.71614
4485,7 Mile & Annchester,Westbound,7,Seven Mile,false, ,false, ,false, ,-83.2358739,42.4297611,660,-9265775.09828113,5225574.55375835
4486,7 Mile & Edinborough,Eastbound,7,Seven Mile,false, ,true,City of Detroit,false, ,-83.2342059,42.429612,661,-9265589.41737049,5225552.06682683
4487,7 Mile & Huntington,Westbound,7,Seven Mile,false, ,true,City of Detroit,false, ,-83.2336778,42.4298279,662,-9265530.6295474,5225584.62840364
4488,7 Mile & Grandville,Eastbound,7,Seven Mile,false, ,false, ,false, ,-83.2314359,42.4296801,663,-9265281.06238099,5225562.33751125
4490,7 Mile & Sunderland,Westbound,7,Seven Mile,false, ,false, ,false, ,-83.229428,42.4299479,664,-9265057.54397543,5225602.7265958
4492,7 Mile & Avon,Westbound,7,Seven Mile,false, ,false, ,false, ,-83.2268451,42.4299939,665,-9264770.01686266,5225609.66424532
4493,7 Mile & Avon,Eastbound,7,Seven Mile,false, ,false, ,false, ,-83.226778,42.4297959,666,-9264762.54732482,5225579.80222492
4494,7 Mile & Greenview,Eastbound,7,Seven Mile,false, ,false, ,false, ,-83.2250349,42.4298059,667,-9264568.50632042,5225581.31040551
4495,7 Mile & Faust,Westbound,7,Seven Mile,false, ,false, ,false, ,-83.224409,42.43004,668,-9264498.83145113,5225616.61698179
4496,7 Mile & Glastonbury,Eastbound,7,Seven Mile,false, ,false, ,false, ,-83.2226539,42.4298519,669,-9264303.45461284,5225588.2480393
4497,Lahser & Thatcher,Northbound,7,Seven Mile,false, ,false, ,false, ,-83.2579499,42.4206671,670,-9268232.58735988,5224203.11468173
4498,7 Mile & Rosemont,Westbound,7,Seven Mile,false, ,false, ,false, ,-83.2218959,42.4300751,671,-9264219.07443882,5225621.91071732
4501,Southfield & 7 Mile,Northbound,46,Southfield,false, ,false, ,false, ,-83.218813,42.4304559,672,-9263875.88758066,5225679.34265975
4502,7 Mile & Fenmore,Eastbound,7,Seven Mile,false, ,true,City of Detroit,false, ,-83.2178182,42.4299431,673,-9263765.14695121,5225602.00266745
4503,7 Mile & Archdale,Westbound,7,Seven Mile,false, ,false, ,false, ,-83.2176211,42.4301609,674,-9263743.20587958,5225634.85097222
4504,7 Mile & Harlow,Eastbound,7,Seven Mile,false, ,true,City of Detroit,false, ,-83.2157648,42.4299981,675,-9263536.56350882,5225610.29768313
4505,7 Mile & Oakfield,Westbound,7,Seven Mile,false, ,false, ,false, ,-83.2154729,42.430221,676,-9263504.06934945,5225643.91519395
4507,7 Mile & Lindsay,Eastbound,7,Seven Mile,false, ,false, ,false, ,-83.213389,42.4300849,677,-9263272.09066259,5225623.38874088
4508,7 Mile & Gilchrist,Westbound,7,Seven Mile,false, ,true,City of Detroit,false, ,-83.2131231,42.4303031,678,-9263242.49080999,5225656.29744766
4509,7 Mile & Biltmore,Eastbound,7,Seven Mile,false, ,false, ,false, ,-83.2112279,42.4301359,679,-9263031.51811104,5225631.08049985
4510,7 Mile & Ferguson,Westbound,7,Seven Mile,false, ,false, ,false, ,-83.2113681,42.4303481,680,-9263047.12510365,5225663.08431711
4511,7 Mile & Asbury Park,Eastbound,7,Seven Mile,false, ,false, ,false, ,-83.2092169,42.4301879,681,-9262807.65461505,5225638.92308406
4512,7 Mile & Murray Hill,Westbound,7,Seven Mile,false, ,false, ,false, ,-83.2087161,42.4304051,682,-9262751.90581406,5225671.68102541
4513,7 Mile & St Marys,Eastbound,7,Seven Mile,false, ,false, ,false, ,-83.2070749,42.4302119,683,-9262569.20826577,5225642.54274051
4514,7 Mile & Mansfield,Westbound,7,Seven Mile,false, ,true,City of Detroit,false, ,-83.2065931,42.4304411,684,-9262515.57453511,5225677.11052942
4515,7 Mile & Rutherford,Eastbound,7,Seven Mile,false, ,true,City of Detroit,false, ,-83.2048949,42.4302209,685,-9262326.53177585,5225643.90011204
4516,7 Mile & Prevost,Westbound,7,Seven Mile,false, ,false, ,false, ,-83.204492,42.430455,686,-9262281.681153,5225679.20692208
4517,7 Mile & Forrer,Eastbound,7,Seven Mile,false, ,true,City of Detroit,false, ,-83.2024499,42.4302799,687,-9262054.35562086,5225652.79844131
4518,7 Mile & Montrose,Westbound,7,Seven Mile,false, ,false, ,false, ,-83.2023349,42.4304711,688,-9262041.55387941,5225681.63511847
4519,7 Mile & Whitcomb,Westbound,7,Seven Mile,false, ,true,City of Detroit,false, ,-83.1979,42.4305979,689,-9261547.8630697,5225700.75907213
4520,7 Mile & Sussex,Eastbound,7,Seven Mile,false, ,false, ,false, ,-83.1957571,42.430446,690,-9261309.31653287,5225677.84954548
4521,7 Mile & Coyle,Westbound,7,Seven Mile,false, ,true,City of Detroit,false, ,-83.1952301,42.430656,691,-9261250.65116123,5225709.52171682
4522,7 Mile & Robson,Eastbound,7,Seven Mile,false, ,true,City of Detroit,false, ,-83.1935342,42.430517,692,-9261061.86443679,5225688.55774392
4523,7 Mile & Lauder,Westbound,7,Seven Mile,false, ,false, ,false, ,-83.1927241,42.4307479,693,-9260971.6845173,5225723.38209566
4528,7 Mile & Marlowe,Eastbound,7,Seven Mile,false, ,false, ,false, ,-83.1909819,42.4306061,694,-9260777.74370044,5225701.99579602
4529,7 Mile & Hubbell,Westbound,7,Seven Mile,false, ,false, ,false, ,-83.1905721,42.4308039,695,-9260732.12497311,5225731.82803832
4545,7 Mile & Stansbury,Eastbound,7,Seven Mile,false, ,false, ,false, ,-83.1837369,42.4308781,696,-9259971.23398964,5225743.01892397
4547,7 Mile & Tracey,Eastbound,7,Seven Mile,false, ,true,City of Detroit,false, ,-83.1811151,42.4309979,697,-9259679.37654868,5225761.08725517
4548,Schaefer & 7 Mile,Southbound,41,Schaefer,false, ,true,City of Detroit,false, ,-83.1805949,42.430726,698,-9259621.46814957,5225720.07913085
4549,Schaefer & 7 Mile,Northbound,41,Schaefer,false, ,false, ,false, ,-83.1803921,42.431399,699,-9259598.89255684,5225821.58172731
4552,7 Mile & Snowden,Westbound,7,Seven Mile,false, ,true,City of Detroit,false, ,-83.1787951,42.4312401,700,-9259421.11533004,5225797.61615714
4553,7 Mile & Snowden,Eastbound,7,Seven Mile,false, ,false, ,false, ,-83.1776458,42.4310678,701,-9259293.17583927,5225771.62964468
4554,7 Mile & W Outer Dr,Westbound,7,Seven Mile,false, ,true,City of Detroit,false, ,-83.1761461,42.4312689,702,-9259126.22999893,5225801.95981796
4555,7 Mile & W Outer Dr,Eastbound,7,Seven Mile,false, ,true,City of Detroit,false, ,-83.1749851,42.4310921,703,-9258996.98807012,5225775.29459829
4557,7 Mile & Steel,Eastbound,7,Seven Mile,false, ,false, ,false, ,-83.172771,42.431124,704,-9258750.51558555,5225780.10579469
4558,7 Mile & Appoline,Westbound,7,Seven Mile,false, ,true,City of Detroit,false, ,-83.1721721,42.4313469,705,-9258683.84634252,5225813.72390938
4559,7 Mile & Meyers,Eastbound,7,Seven Mile,false, ,true,City of Detroit,true,DDOT,-83.1699059,42.4311211,706,-9258431.57411248,5225779.6684131
4560,7 Mile & Pinehurst,Westbound,7,Seven Mile,false, ,false, ,false, ,-83.1680701,42.4313611,707,-9258227.21379128,5225815.86557888
4561,7 Mile & Mendota,Eastbound,7,Seven Mile,false, ,true,City of Detroit,false, ,-83.1660411,42.4312219,708,-9258001.34654446,5225794.87120584
4562,7 Mile & Birwood,Westbound,7,Seven Mile,false, ,false, ,false, ,-83.1657519,42.431408,709,-9257969.15294772,5225822.93912454
4564,7 Mile & Griggs,Eastbound,7,Seven Mile,false, ,false, ,false, ,-83.1637961,42.4312421,710,-9257751.43428763,5225797.91780019
4565,7 Mile & Ilene,Westbound,7,Seven Mile,false, ,true,City of Detroit,false, ,-83.163421,42.431425,711,-9257709.67834663,5225825.50309763
4566,7 Mile & Indiana,Westbound,7,Seven Mile,false, ,false, ,false, ,-83.1590458,42.431481,712,-9257222.63331052,5225833.94913153
4567,7 Mile & Wisconsin,Eastbound,7,Seven Mile,false, ,false, ,false, ,-83.1574099,42.4312871,713,-9257040.52575553,5225804.70477132
4568,7 Mile & Ohio,Westbound,7,Seven Mile,false, ,false, ,false, ,-83.1568921,42.4314929,714,-9256982.88452319,5225835.7439147
4569,7 Mile & Cherrylawn,Eastbound,7,Seven Mile,false, ,false, ,false, ,-83.1544638,42.431295,715,-9256712.5674037,5225805.8962623
4570,7 Mile & Northlawn,Westbound,7,Seven Mile,false, ,false, ,false, ,-83.1547899,42.431504,716,-9256748.86868965,5225837.41804049
4572,7 Mile & Roselawn,Eastbound,7,Seven Mile,false, ,false, ,false, ,-83.1526571,42.4313111,717,-9256511.44647968,5225808.32449124
4573,7 Mile & Greenlawn,Westbound,7,Seven Mile,false, ,false, ,false, ,-83.1522252,42.4315019,718,-9256463.36759161,5225837.10131397
4574,7 Mile & Woodingham,Eastbound,7,Seven Mile,false, ,false, ,false, ,-83.150415,42.4313329,719,-9256261.85704938,5225811.61240471
4575,7 Mile & Santa Barbara,Westbound,7,Seven Mile,false, ,false, ,false, ,-83.149868,42.431514,720,-9256200.96528791,5225838.92626218
4576,7 Mile & Pennington,Eastbound,7,Seven Mile,false, ,false, ,false, ,-83.147901,42.4313919,721,-9255981.99984952,5225820.51089185
4578,7 Mile & Monica,Westbound,7,Seven Mile,false, ,false, ,false, ,-83.1450641,42.4316529,722,-9255666.19758609,5225859.8754863
4579,7 Mile & Monica,Eastbound,7,Seven Mile,false, ,true,City of Detroit,false, ,-83.1444271,42.4314539,723,-9255595.28707046,5225829.86185347
4580,7 Mile & Stoepel,Eastbound,7,Seven Mile,false, ,false, ,false, ,-83.142158,42.4315659,724,-9255342.6920139,5225846.7539366
4581,Livernois & 7 Mile,Southbound,30,Livernois,false, ,true,City of Detroit,true,DDOT,-83.1416309,42.4312979,725,-9255284.0155103,5225806.33364511
4582,Livernois & 7 Mile,Northbound,30,Livernois,false, ,true,City of Detroit,true,DDOT,-83.1413499,42.4318531,726,-9255252.73473339,5225890.07020202
4585,7 Mile & Berkeley,Westbound,7,Seven Mile,false, ,false, ,false, ,-83.1385002,42.431726,727,-9254935.50758047,5225870.90061857
4586,7 Mile & Oak,Eastbound,7,Seven Mile,false, ,false, ,false, ,-83.1384412,42.4315991,728,-9254928.93973052,5225851.76123848
4587,7 Mile & Birchcrest,Eastbound,7,Seven Mile,false, ,false, ,false, ,-83.1368491,42.4316079,729,-9254751.70796923,5225853.08847556
